$GPRMC,194924.80,A,3203.02116,N,11042.41425,W,1.304,30.95,120120,,,A*48
$GPRMC,194925.00,A,3203.02126,N,11042.41411,W,1.597,31.19,120120,,,A*4C
$GPRMC,194925.20,A,3203.02141,N,11042.41401,W,2.052,29.63,120120,,,A*45
$GPRMC,194925.40,A,3203.02152,N,11042.41390,W,2.550,31.40,120120,,,A*41
$GPRMC,194925.60,A,3203.02165,N,11042.41379,W,2.646,31.94,120120,,,A*4D
$GPRMC,194925.80,A,3203.02182,N,11042.41366,W,3.239,29.93,120120,,,A*47
$GPRMC,194926.00,A,3203.02200,N,11042.41353,W,3.467,30.13,120120,,,A*4E
$GPRMC,194926.20,A,3203.02220,N,11042.41338,W,3.838,30.28,120120,,,A*4D
$GPRMC,194926.40,A,3203.02240,N,11042.41322,W,4.037,30.49,120120,,,A*41
$GPRMC,194926.60,A,3203.02260,N,11042.41303,W,4.204,31.37,120120,,,A*48
$GPRMC,194926.80,A,3203.02278,N,11042.41285,W,4.241,32.85,120120,,,A*4B
$GPRMC,194927.00,A,3203.02298,N,11042.41266,W,4.245,33.42,120120,,,A*4F
$GPRMC,194927.20,A,3203.02318,N,11042.41245,W,4.518,34.68,120120,,,A*45
$GPRMC,194927.40,A,3203.02341,N,11042.41220,W,4.880,37.42,120120,,,A*4B
$GPRMC,194927.60,A,3203.02365,N,11042.41195,W,5.151,39.36,120120,,,A*4B
$GPRMC,194927.80,A,3203.02389,N,11042.41166,W,5.500,41.29,120120,,,A*4A
$GPRMC,194928.00,A,3203.02409,N,11042.41139,W,5.619,43.25,120120,,,A*4D
$GPRMC,194928.20,A,3203.02427,N,11042.41112,W,5.604,44.99,120120,,,A*46
$GPRMC,194928.40,A,3203.02452,N,11042.41085,W,5.890,44.62,120120,,,A*4A
$GPRMC,194928.60,A,3203.02471,N,11042.41056,W,5.872,45.91,120120,,,A*46
$GPRMC,194928.80,A,3203.02490,N,11042.41024,W,5.999,48.20,120120,,,A*41
$GPRMC,194929.00,A,3203.02509,N,11042.40987,W,6.191,50.49,120120,,,A*4D
$GPRMC,194929.20,A,3203.02524,N,11042.40948,W,6.374,53.96,120120,,,A*4B
$GPRMC,194929.40,A,3203.02534,N,11042.40905,W,6.591,58.18,120120,,,A*45
$GPRMC,194929.60,A,3203.02541,N,11042.40858,W,7.014,63.27,120120,,,A*41
$GPRMC,194929.80,A,3203.02513,N,11042.40796,W,7.262,76.83,120120,,,A*4C
$GPRMC,194930.00,A,3203.02506,N,11042.40745,W,7.337,82.28,120120,,,A*4D
$GPRMC,194930.20,A,3203.02496,N,11042.40696,W,7.267,87.48,120120,,,A*4F
$GPRMC,194930.40,A,3203.02482,N,11042.40646,W,7.327,93.83,120120,,,A*46
$GPRMC,194930.60,A,3203.02471,N,11042.40598,W,7.483,96.83,120120,,,A*44
$GPRMC,194930.80,A,3203.02456,N,11042.40551,W,7.332,101.43,120120,,,A*74
$GPRMC,194931.00,A,3203.02443,N,11042.40509,W,6.966,103.69,120120,,,A*74
$GPRMC,194931.20,A,3203.02424,N,11042.40466,W,7.308,107.49,120120,,,A*7A
$GPRMC,194931.40,A,3203.02409,N,11042.40423,W,7.324,109.06,120120,,,A*79
$GPRMC,194931.60,A,3203.02395,N,11042.40380,W,7.186,109.77,120120,,,A*7B
$GPRMC,194931.80,A,3203.02372,N,11042.40340,W,7.189,112.65,120120,,,A*76
$GPRMC,194932.00,A,3203.02348,N,11042.40296,W,7.323,114.40,120120,,,A*7D
$GPRMC,194932.20,A,3203.02325,N,11042.40254,W,7.208,116.00,120120,,,A*74
$GPRMC,194932.40,A,3203.02302,N,11042.40211,W,7.341,116.75,120120,,,A*78
$GPRMC,194932.60,A,3203.02280,N,11042.40167,W,7.449,116.37,120120,,,A*7A
$GPRMC,194932.80,A,3203.02259,N,11042.40126,W,7.271,116.10,120120,,,A*7D
$GPRMC,194933.00,A,3203.02241,N,11042.40080,W,7.464,113.35,120120,,,A*70
$GPRMC,194933.20,A,3203.02221,N,11042.40034,W,7.454,112.42,120120,,,A*79
$GPRMC,194933.40,A,3203.02206,N,11042.39989,W,7.495,111.58,120120,,,A*7E
$GPRMC,194933.60,A,3203.02192,N,11042.39941,W,7.724,108.91,120120,,,A*72
$GPRMC,194933.80,A,3203.02177,N,11042.39893,W,7.720,107.54,120120,,,A*7B
$GPRMC,194934.00,A,3203.02164,N,11042.39845,W,7.565,105.91,120120,,,A*75
$GPRMC,194934.20,A,3203.02150,N,11042.39796,W,7.591,104.47,120120,,,A*70
$GPRMC,194934.40,A,3203.02139,N,11042.39747,W,7.645,103.12,120120,,,A*78
$GPRMC,194934.60,A,3203.02129,N,11042.39701,W,7.582,102.13,120120,,,A*71
$GPRMC,194934.80,A,3203.02118,N,11042.39651,W,7.696,101.74,120120,,,A*7D
$GPRMC,194935.00,A,3203.02109,N,11042.39597,W,8.014,100.72,120120,,,A*79
$GPRMC,194935.20,A,3203.02100,N,11042.39544,W,8.120,100.47,120120,,,A*7C
$GPRMC,194935.40,A,3203.02090,N,11042.39492,W,8.153,100.40,120120,,,A*7B
$GPRMC,194935.60,A,3203.02079,N,11042.39441,W,8.130,101.37,120120,,,A*74
$GPRMC,194935.80,A,3203.02066,N,11042.39390,W,8.071,102.53,120120,,,A*7A
$GPRMC,194936.00,A,3203.02055,N,11042.39336,W,8.320,102.78,120120,,,A*73
$GPRMC,194936.20,A,3203.02044,N,11042.39284,W,8.239,102.63,120120,,,A*7A
$GPRMC,194936.40,A,3203.02031,N,11042.39233,W,8.051,103.56,120120,,,A*79
$GPRMC,194936.60,A,3203.02016,N,11042.39185,W,7.703,105.15,120120,,,A*7E
$GPRMC,194936.80,A,3203.02000,N,11042.39135,W,7.928,106.62,120120,,,A*78
$GPRMC,194937.00,A,3203.01985,N,11042.39083,W,8.066,107.23,120120,,,A*72
$GPRMC,194937.20,A,3203.01971,N,11042.39037,W,7.768,107.89,120120,,,A*72
$GPRMC,194937.40,A,3203.01951,N,11042.38991,W,7.815,108.90,120120,,,A*70
$GPRMC,194937.60,A,3203.01938,N,11042.38943,W,7.869,109.27,120120,,,A*74
$GPRMC,194937.80,A,3203.01923,N,11042.38898,W,7.896,110.11,120120,,,A*7A
$GPRMC,194938.00,A,3203.01902,N,11042.38853,W,7.758,111.49,120120,,,A*78
$GPRMC,194938.20,A,3203.01884,N,11042.38807,W,7.816,111.79,120120,,,A*72
$GPRMC,194938.40,A,3203.01865,N,11042.38762,W,7.830,112.57,120120,,,A*7C
$GPRMC,194938.60,A,3203.01843,N,11042.38719,W,7.830,114.10,120120,,,A*73
$GPRMC,194938.80,A,3203.01820,N,11042.38675,W,7.932,114.77,120120,,,A*71
$GPRMC,194939.00,A,3203.01796,N,11042.38630,W,7.923,116.08,120120,,,A*71
$GPRMC,194939.20,A,3203.01774,N,11042.38585,W,7.896,117.11,120120,,,A*74
$GPRMC,194939.40,A,3203.01756,N,11042.38543,W,7.846,119.07,120120,,,A*7C
$GPRMC,194939.60,A,3203.01719,N,11042.38496,W,7.984,120.16,120120,,,A*79
$GPRMC,194939.80,A,3203.01691,N,11042.38449,W,8.046,121.69,120120,,,A*75
$GPRMC,194940.00,A,3203.01667,N,11042.38409,W,7.873,123.55,120120,,,A*72
$GPRMC,194940.20,A,3203.01638,N,11042.38370,W,7.955,125.96,120120,,,A*7F
$GPRMC,194940.40,A,3203.01611,N,11042.38334,W,7.620,127.64,120120,,,A*70
$GPRMC,194940.60,A,3203.01585,N,11042.38298,W,7.389,129.41,120120,,,A*74
$GPRMC,194940.80,A,3203.01556,N,11042.38265,W,7.329,132.50,120120,,,A*76
$GPRMC,194941.00,A,3203.01526,N,11042.38234,W,7.276,134.85,120120,,,A*79
$GPRMC,194941.20,A,3203.01494,N,11042.38201,W,7.538,136.63,120120,,,A*72
$GPRMC,194941.40,A,3203.01461,N,11042.38165,W,7.667,137.57,120120,,,A*70
$GPRMC,194941.60,A,3203.01428,N,11042.38134,W,7.534,138.90,120120,,,A*7A
$GPRMC,194941.80,A,3203.01393,N,11042.38110,W,7.447,141.97,120120,,,A*79
$GPRMC,194942.00,A,3203.01359,N,11042.38087,W,7.366,144.32,120120,,,A*75
$GPRMC,194942.20,A,3203.01322,N,11042.38065,W,7.335,147.09,120120,,,A*7A
$GPRMC,194942.40,A,3203.01284,N,11042.38053,W,7.253,151.20,120120,,,A*79
$GPRMC,194942.60,A,3203.01246,N,11042.38046,W,7.147,155.81,120120,,,A*78
$GPRMC,194942.80,A,3203.01207,N,11042.38043,W,6.997,161.44,120120,,,A*7C
$GPRMC,194943.00,A,3203.01167,N,11042.38035,W,7.030,164.60,120120,,,A*77
$GPRMC,194943.20,A,3203.01131,N,11042.38032,W,6.724,168.87,120120,,,A*77
$GPRMC,194943.40,A,3203.01092,N,11042.38032,W,6.952,174.34,120120,,,A*73
$GPRMC,194943.60,A,3203.01055,N,11042.38035,W,6.905,177.87,120120,,,A*74
$GPRMC,194943.80,A,3203.01018,N,11042.38035,W,6.791,179.68,120120,,,A*7F
$GPRMC,194944.00,A,3203.00981,N,11042.38038,W,6.662,181.12,120120,,,A*72
$GPRMC,194944.20,A,3203.00946,N,11042.38042,W,6.431,183.07,120120,,,A*74
$GPRMC,194944.40,A,3203.00911,N,11042.38053,W,6.452,187.50,120120,,,A*73
$GPRMC,194944.60,A,3203.00879,N,11042.38063,W,6.073,191.58,120120,,,A*75
$GPRMC,194944.80,A,3203.00840,N,11042.38074,W,6.506,193.50,120120,,,A*7A
$GPRMC,194945.00,A,3203.00800,N,11042.38090,W,6.832,195.08,120120,,,A*7C
$GPRMC,194945.20,A,3203.00758,N,11042.38116,W,7.298,200.28,120120,,,A*75
$GPRMC,194945.40,A,3203.00718,N,11042.38137,W,7.472,203.29,120120,,,A*74
$GPRMC,194945.60,A,3203.00681,N,11042.38158,W,7.345,204.00,120120,,,A*71
$GPRMC,194945.80,A,3203.00642,N,11042.38180,W,7.465,204.36,120120,,,A*75
$GPRMC,194946.00,A,3203.00602,N,11042.38204,W,7.801,204.98,120120,,,A*7F
$GPRMC,194946.20,A,3203.00565,N,11042.38229,W,7.742,205.58,120120,,,A*75
$GPRMC,194946.40,A,3203.00526,N,11042.38258,W,7.935,206.76,120120,,,A*73
$GPRMC,194946.60,A,3203.00489,N,11042.38283,W,7.824,207.73,120120,,,A*76
$GPRMC,194946.80,A,3203.00451,N,11042.38313,W,8.070,209.12,120120,,,A*7A
$GPRMC,194947.00,A,3203.00414,N,11042.38342,W,8.075,210.01,120120,,,A*79
$GPRMC,194947.20,A,3203.00377,N,11042.38372,W,8.070,210.73,120120,,,A*7A
$GPRMC,194947.40,A,3203.00342,N,11042.38406,W,7.993,212.06,120120,,,A*75
$GPRMC,194947.60,A,3203.00305,N,11042.38436,W,8.142,211.78,120120,,,A*76
$GPRMC,194947.80,A,3203.00270,N,11042.38470,W,8.138,211.89,120120,,,A*7A
$GPRMC,194948.00,A,3203.00233,N,11042.38503,W,8.130,211.43,120120,,,A*71
$GPRMC,194948.20,A,3203.00197,N,11042.38534,W,8.119,212.21,120120,,,A*76
$GPRMC,194948.40,A,3203.00159,N,11042.38564,W,8.134,212.19,120120,,,A*73
$GPRMC,194948.60,A,3203.00125,N,11042.38596,W,8.096,212.19,120120,,,A*7E
$GPRMC,194948.80,A,3203.00088,N,11042.38627,W,8.109,212.45,120120,,,A*71
$GPRMC,194949.00,A,3203.00050,N,11042.38657,W,8.096,212.48,120120,,,A*70
$GPRMC,194949.20,A,3203.00011,N,11042.38687,W,8.051,212.38,120120,,,A*76
$GPRMC,194949.40,A,3202.99975,N,11042.38718,W,8.096,212.83,120120,,,A*76
$GPRMC,194949.60,A,3202.99938,N,11042.38747,W,8.129,211.99,120120,,,A*7A
$GPRMC,194949.80,A,3202.99902,N,11042.38780,W,8.081,212.63,120120,,,A*73
$GPRMC,194950.00,A,3202.99866,N,11042.38810,W,8.029,212.72,120120,,,A*74
$GPRMC,194950.20,A,3202.99831,N,11042.38842,W,8.052,213.05,120120,,,A*7E
$GPRMC,194950.40,A,3202.99794,N,11042.38873,W,8.069,213.13,120120,,,A*75
$GPRMC,194950.60,A,3202.99759,N,11042.38903,W,7.872,213.17,120120,,,A*79
$GPRMC,194950.80,A,3202.99723,N,11042.38934,W,7.981,213.14,120120,,,A*70
$GPRMC,194951.00,A,3202.99688,N,11042.38962,W,7.809,213.08,120120,,,A*76
$GPRMC,194951.20,A,3202.99651,N,11042.38992,W,7.904,212.73,120120,,,A*7E
$GPRMC,194951.40,A,3202.99614,N,11042.39021,W,7.945,213.00,120120,,,A*79
$GPRMC,194951.60,A,3202.99578,N,11042.39050,W,7.896,213.12,120120,,,A*78
$GPRMC,194951.80,A,3202.99541,N,11042.39078,W,7.894,212.70,120120,,,A*71
$GPRMC,194952.00,A,3202.99506,N,11042.39105,W,7.661,212.65,120120,,,A*72
$GPRMC,194952.20,A,3202.99470,N,11042.39133,W,7.763,212.69,120120,,,A*7A
$GPRMC,194952.40,A,3202.99436,N,11042.39160,W,7.540,212.45,120120,,,A*75
$GPRMC,194952.60,A,3202.99403,N,11042.39188,W,7.430,212.54,120120,,,A*71
$GPRMC,194952.80,A,3202.99370,N,11042.39216,W,7.464,212.82,120120,,,A*72
$GPRMC,194953.00,A,3202.99336,N,11042.39243,W,7.267,212.27,120120,,,A*73
$GPRMC,194953.20,A,3202.99303,N,11042.39269,W,7.233,211.86,120120,,,A*76
$GPRMC,194953.40,A,3202.99269,N,11042.39295,W,7.239,211.93,120120,,,A*70
$GPRMC,194953.60,A,3202.99237,N,11042.39323,W,7.069,212.15,120120,,,A*7F
$GPRMC,194953.80,A,3202.99205,N,11042.39351,W,6.947,212.80,120120,,,A*7D
$GPRMC,194954.00,A,3202.99172,N,11042.39377,W,7.081,213.21,120120,,,A*7D
$GPRMC,194954.20,A,3202.99144,N,11042.39403,W,6.971,213.92,120120,,,A*71
$GPRMC,194954.40,A,3202.99115,N,11042.39430,W,6.882,215.87,120120,,,A*7C
$GPRMC,194954.60,A,3202.99087,N,11042.39457,W,6.636,216.97,120120,,,A*76
$GPRMC,194954.80,A,3202.99061,N,11042.39487,W,6.654,217.74,120120,,,A*75
$GPRMC,194955.00,A,3202.99033,N,11042.39515,W,6.610,218.34,120120,,,A*7A
$GPRMC,194955.20,A,3202.99006,N,11042.39547,W,6.734,220.69,120120,,,A*7D
$GPRMC,194955.40,A,3202.98985,N,11042.39581,W,6.553,224.92,120120,,,A*71
$GPRMC,194955.60,A,3202.98969,N,11042.39621,W,6.483,231.91,120120,,,A*73
$GPRMC,194955.80,A,3202.98949,N,11042.39655,W,6.388,233.95,120120,,,A*76
$GPRMC,194956.00,A,3202.98935,N,11042.39692,W,6.216,237.69,120120,,,A*7C
$GPRMC,194956.20,A,3202.98921,N,11042.39732,W,6.361,241.72,120120,,,A*7A
$GPRMC,194956.40,A,3202.98911,N,11042.39775,W,6.407,246.15,120120,,,A*7D
$GPRMC,194956.60,A,3202.98903,N,11042.39819,W,6.620,249.68,120120,,,A*7B
$GPRMC,194956.80,A,3202.98894,N,11042.39862,W,6.779,252.07,120120,,,A*78
$GPRMC,194957.00,A,3202.98890,N,11042.39906,W,6.674,255.20,120120,,,A*78
$GPRMC,194957.20,A,3202.98887,N,11042.39953,W,7.050,258.63,120120,,,A*77
$GPRMC,194957.40,A,3202.98887,N,11042.39997,W,6.964,262.50,120120,,,A*7F
$GPRMC,194957.60,A,3202.98890,N,11042.40039,W,6.730,266.29,120120,,,A*7D
$GPRMC,194957.80,A,3202.98890,N,11042.40085,W,6.998,268.22,120120,,,A*7D
$GPRMC,194958.00,A,3202.98890,N,11042.40129,W,6.899,268.45,120120,,,A*7C
$GPRMC,194958.20,A,3202.98892,N,11042.40175,W,7.017,269.67,120120,,,A*7B
$GPRMC,194958.40,A,3202.98898,N,11042.40222,W,7.210,271.87,120120,,,A*74
$GPRMC,194958.60,A,3202.98899,N,11042.40271,W,7.377,272.60,120120,,,A*7B
$GPRMC,194958.80,A,3202.98904,N,11042.40317,W,7.286,274.01,120120,,,A*7F
$GPRMC,194959.00,A,3202.98904,N,11042.40366,W,7.489,272.96,120120,,,A*71
$GPRMC,194959.20,A,3202.98907,N,11042.40417,W,7.685,272.85,120120,,,A*7D
$GPRMC,194959.40,A,3202.98913,N,11042.40469,W,7.932,273.42,120120,,,A*7E
$GPRMC,194959.60,A,3202.98917,N,11042.40523,W,8.156,273.70,120120,,,A*73
$GPRMC,194959.80,A,3202.98924,N,11042.40581,W,8.482,274.60,120120,,,A*7F
$GPRMC,195000.00,A,3202.98930,N,11042.40636,W,8.482,274.34,120120,,,A*78
$GPRMC,195000.20,A,3202.98935,N,11042.40692,W,8.532,274.35,120120,,,A*7A
$GPRMC,195000.40,A,3202.98937,N,11042.40747,W,8.487,273.72,120120,,,A*7C
$GPRMC,195000.60,A,3202.98940,N,11042.40802,W,8.483,273.70,120120,,,A*76
$GPRMC,195000.80,A,3202.98943,N,11042.40858,W,8.562,273.39,120120,,,A*77
$GPRMC,195001.00,A,3202.98950,N,11042.40915,W,8.608,273.85,120120,,,A*7C
$GPRMC,195001.20,A,3202.98958,N,11042.40971,W,8.543,274.71,120120,,,A*74
$GPRMC,195001.40,A,3202.98962,N,11042.41025,W,8.441,274.68,120120,,,A*79
$GPRMC,195001.60,A,3202.98965,N,11042.41078,W,8.349,274.40,120120,,,A*71
$GPRMC,195001.80,A,3202.98970,N,11042.41132,W,8.222,274.59,120120,,,A*70
$GPRMC,195002.00,A,3202.98975,N,11042.41186,W,8.233,275.27,120120,,,A*79
$GPRMC,195002.20,A,3202.98976,N,11042.41240,W,8.170,274.47,120120,,,A*72
$GPRMC,195002.40,A,3202.98976,N,11042.41292,W,8.027,274.49,120120,,,A*76
$GPRMC,195002.60,A,3202.98981,N,11042.41347,W,8.158,275.34,120120,,,A*77
$GPRMC,195002.80,A,3202.98984,N,11042.41400,W,8.139,275.33,120120,,,A*78
$GPRMC,195003.00,A,3202.98989,N,11042.41453,W,8.000,275.70,120120,,,A*76
$GPRMC,195003.20,A,3202.98991,N,11042.41504,W,8.021,275.36,120120,,,A*7F
$GPRMC,195003.40,A,3202.98994,N,11042.41557,W,8.054,275.33,120120,,,A*7D
$GPRMC,195003.60,A,3202.98998,N,11042.41609,W,8.111,274.89,120120,,,A*7B
$GPRMC,195003.80,A,3202.99002,N,11042.41661,W,8.027,275.43,120120,,,A*73
$GPRMC,195004.00,A,3202.99003,N,11042.41713,W,8.039,274.70,120120,,,A*77
$GPRMC,195004.20,A,3202.99004,N,11042.41765,W,7.942,273.88,120120,,,A*79
$GPRMC,195004.40,A,3202.99008,N,11042.41818,W,8.050,273.59,120120,,,A*7F
$GPRMC,195004.60,A,3202.99011,N,11042.41871,W,8.010,273.74,120120,,,A*71
$GPRMC,195004.80,A,3202.99012,N,11042.41924,W,8.005,273.21,120120,,,A*79
$GPRMC,195005.00,A,3202.99012,N,11042.41978,W,7.991,273.23,120120,,,A*70
$GPRMC,195005.20,A,3202.99015,N,11042.42031,W,8.008,273.09,120120,,,A*7C
$GPRMC,195005.40,A,3202.99017,N,11042.42085,W,7.967,273.12,120120,,,A*72
$GPRMC,195005.60,A,3202.99018,N,11042.42138,W,7.868,272.56,120120,,,A*77
$GPRMC,195005.80,A,3202.99020,N,11042.42191,W,7.896,272.39,120120,,,A*79
$GPRMC,195006.00,A,3202.99020,N,11042.42241,W,7.676,272.55,120120,,,A*76
$GPRMC,195006.20,A,3202.99022,N,11042.42293,W,7.678,272.67,120120,,,A*76
$GPRMC,195006.40,A,3202.99021,N,11042.42342,W,7.539,272.13,120120,,,A*7B
$GPRMC,195006.60,A,3202.99021,N,11042.42393,W,7.566,272.47,120120,,,A*7E
$GPRMC,195006.80,A,3202.99023,N,11042.42441,W,7.454,273.24,120120,,,A*7E
$GPRMC,195007.00,A,3202.99025,N,11042.42489,W,7.458,273.73,120120,,,A*7B
$GPRMC,195007.20,A,3202.99027,N,11042.42535,W,7.248,273.60,120120,,,A*78
$GPRMC,195007.40,A,3202.99034,N,11042.42583,W,7.277,275.22,120120,,,A*7D
$GPRMC,195007.60,A,3202.99040,N,11042.42630,W,7.220,276.65,120120,,,A*75
$GPRMC,195007.80,A,3202.99048,N,11042.42675,W,7.063,278.25,120120,,,A*7D
$GPRMC,195008.00,A,3202.99055,N,11042.42718,W,6.864,279.30,120120,,,A*77
$GPRMC,195008.20,A,3202.99063,N,11042.42760,W,6.668,280.62,120120,,,A*7C
$GPRMC,195008.40,A,3202.99077,N,11042.42800,W,6.602,283.99,120120,,,A*7D
$GPRMC,195008.60,A,3202.99094,N,11042.42842,W,6.584,287.23,120120,,,A*7C
$GPRMC,195008.80,A,3202.99118,N,11042.42884,W,6.733,293.22,120120,,,A*77
$GPRMC,195009.00,A,3202.99138,N,11042.42923,W,7.051,297.05,120120,,,A*73
$GPRMC,195009.20,A,3202.99161,N,11042.42962,W,7.071,299.90,120120,,,A*78
$GPRMC,195009.40,A,3202.99189,N,11042.42994,W,6.919,304.82,120120,,,A*71
$GPRMC,195009.60,A,3202.99216,N,11042.43021,W,6.598,309.64,120120,,,A*70
$GPRMC,195009.80,A,3202.99244,N,11042.43049,W,6.588,312.60,120120,,,A*78
$GPRMC,195010.00,A,3202.99277,N,11042.43065,W,6.374,318.18,120120,,,A*76
$GPRMC,195010.20,A,3202.99309,N,11042.43084,W,6.308,322.12,120120,,,A*7B
$GPRMC,195010.40,A,3202.99343,N,11042.43099,W,6.282,326.82,120120,,,A*71
$GPRMC,195010.60,A,3202.99379,N,11042.43114,W,6.305,331.60,120120,,,A*7A
$GPRMC,195010.80,A,3202.99423,N,11042.43114,W,6.694,342.57,120120,,,A*71
$GPRMC,195011.00,A,3202.99454,N,11042.43114,W,6.324,347.73,120120,,,A*75
$GPRMC,195011.20,A,3202.99494,N,11042.43114,W,6.500,353.88,120120,,,A*7A
$GPRMC,195011.40,A,3202.99533,N,11042.43110,W,6.669,357.91,120120,,,A*74
$GPRMC,195011.60,A,3202.99565,N,11042.43105,W,6.322,0.59,120120,,,A*7E
$GPRMC,195011.80,A,3202.99596,N,11042.43091,W,6.346,6.73,120120,,,A*7C
$GPRMC,195012.00,A,3202.99641,N,11042.43071,W,7.389,13.05,120120,,,A*47
$GPRMC,195012.20,A,3202.99668,N,11042.43050,W,7.014,15.31,120120,,,A*4B
$GPRMC,195012.40,A,3202.99704,N,11042.43034,W,6.898,17.67,120120,,,A*48
$GPRMC,195012.60,A,3202.99737,N,11042.43014,W,6.996,20.05,120120,,,A*47
$GPRMC,195012.80,A,3202.99771,N,11042.42995,W,6.999,22.25,120120,,,A*45
$GPRMC,195013.00,A,3202.99807,N,11042.42975,W,7.159,23.21,120120,,,A*4C
$GPRMC,195013.20,A,3202.99845,N,11042.42951,W,7.439,24.99,120120,,,A*49
$GPRMC,195013.40,A,3202.99883,N,11042.42927,W,7.610,26.01,120120,,,A*4E
$GPRMC,195013.60,A,3202.99920,N,11042.42904,W,7.514,26.50,120120,,,A*46
$GPRMC,195013.80,A,3202.99957,N,11042.42880,W,7.632,26.65,120120,,,A*44
$GPRMC,195014.00,A,3202.99997,N,11042.42857,W,7.785,26.26,120120,,,A*47
$GPRMC,195014.20,A,3203.00035,N,11042.42834,W,7.818,27.16,120120,,,A*49
$GPRMC,195014.40,A,3203.00075,N,11042.42807,W,7.900,27.97,120120,,,A*4A
$GPRMC,195014.60,A,3203.00113,N,11042.42778,W,7.780,27.81,120120,,,A*4F
$GPRMC,195014.80,A,3203.00153,N,11042.42753,W,7.945,27.98,120120,,,A*43
$GPRMC,195015.00,A,3203.00192,N,11042.42727,W,7.982,28.34,120120,,,A*46
$GPRMC,195015.20,A,3203.00231,N,11042.42701,W,8.052,28.39,120120,,,A*4C
$GPRMC,195015.40,A,3203.00273,N,11042.42673,W,8.317,28.25,120120,,,A*47
$GPRMC,195015.60,A,3203.00309,N,11042.42645,W,7.992,28.62,120120,,,A*47
$GPRMC,195015.80,A,3203.00348,N,11042.42616,W,8.175,29.32,120120,,,A*40
$GPRMC,195016.00,A,3203.00386,N,11042.42591,W,8.104,29.03,120120,,,A*41
$GPRMC,195016.20,A,3203.00424,N,11042.42563,W,8.065,28.91,120120,,,A*4D
$GPRMC,195016.40,A,3203.00463,N,11042.42537,W,7.961,28.57,120120,,,A*41
$GPRMC,195016.60,A,3203.00500,N,11042.42512,W,7.908,28.79,120120,,,A*43
$GPRMC,195016.80,A,3203.00539,N,11042.42487,W,8.073,28.94,120120,,,A*43
$GPRMC,195017.00,A,3203.00577,N,11042.42461,W,7.929,28.29,120120,,,A*47
$GPRMC,195017.20,A,3203.00617,N,11042.42432,W,7.967,28.38,120120,,,A*4C
$GPRMC,195017.40,A,3203.00657,N,11042.42405,W,7.908,28.14,120120,,,A*4D
$GPRMC,195017.60,A,3203.00698,N,11042.42381,W,7.963,27.85,120120,,,A*4D
$GPRMC,195017.80,A,3203.00734,N,11042.42358,W,7.854,28.00,120120,,,A*47
$GPRMC,195018.00,A,3203.00772,N,11042.42334,W,7.797,27.98,120120,,,A*46
$GPRMC,195018.20,A,3203.00810,N,11042.42308,W,7.884,28.23,120120,,,A*42
$GPRMC,195018.40,A,3203.00849,N,11042.42283,W,7.846,27.79,120120,,,A*44
$GPRMC,195018.60,A,3203.00886,N,11042.42259,W,7.661,27.95,120120,,,A*4B
$GPRMC,195018.80,A,3203.00922,N,11042.42236,W,7.438,28.40,120120,,,A*4A
$GPRMC,195019.00,A,3203.00959,N,11042.42211,W,7.424,28.40,120120,,,A*47
$GPRMC,195019.20,A,3203.00996,N,11042.42187,W,7.469,27.94,120120,,,A*45
$GPRMC,195019.40,A,3203.01034,N,11042.42162,W,7.564,28.16,120120,,,A*41
$GPRMC,195019.60,A,3203.01071,N,11042.42139,W,7.465,27.89,120120,,,A*45
$GPRMC,195019.80,A,3203.01107,N,11042.42117,W,7.360,27.58,120120,,,A*49
$GPRMC,195020.00,A,3203.01142,N,11042.42094,W,7.225,27.45,120120,,,A*4C
$GPRMC,195020.20,A,3203.01176,N,11042.42072,W,7.051,27.24,120120,,,A*47
$GPRMC,195020.40,A,3203.01213,N,11042.42049,W,7.174,28.06,120120,,,A*40
$GPRMC,195020.60,A,3203.01248,N,11042.42027,W,7.113,28.21,120120,,,A*40
$GPRMC,195020.80,A,3203.01281,N,11042.42006,W,7.011,27.65,120120,,,A*44
$GPRMC,195021.00,A,3203.01315,N,11042.41984,W,6.970,27.69,120120,,,A*42
$GPRMC,195021.20,A,3203.01350,N,11042.41962,W,6.941,27.93,120120,,,A*4E
$GPRMC,195021.40,A,3203.01384,N,11042.41942,W,6.970,26.92,120120,,,A*41
$GPRMC,195021.60,A,3203.01418,N,11042.41921,W,6.915,27.09,120120,,,A*44
$GPRMC,195021.80,A,3203.01452,N,11042.41901,W,6.807,26.93,120120,,,A*46
$GPRMC,195022.00,A,3203.01487,N,11042.41881,W,6.950,26.73,120120,,,A*41
$GPRMC,195022.20,A,3203.01523,N,11042.41860,W,6.919,26.98,120120,,,A*4B
$GPRMC,195022.40,A,3203.01557,N,11042.41839,W,7.137,26.66,120120,,,A*46
$GPRMC,195022.60,A,3203.01591,N,11042.41817,W,7.168,27.32,120120,,,A*48
$GPRMC,195022.80,A,3203.01620,N,11042.41798,W,6.822,26.86,120120,,,A*4F
$GPRMC,195023.00,A,3203.01652,N,11042.41778,W,6.697,26.92,120120,,,A*48
$GPRMC,195023.20,A,3203.01685,N,11042.41757,W,6.713,27.07,120120,,,A*4D
$GPRMC,195023.40,A,3203.01720,N,11042.41737,W,6.733,27.25,120120,,,A*41
$GPRMC,195023.60,A,3203.01754,N,11042.41718,W,6.773,26.90,120120,,,A*46
$GPRMC,195023.80,A,3203.01789,N,11042.41699,W,6.855,26.38,120120,,,A*49
$GPRMC,195024.00,A,3203.01825,N,11042.41678,W,6.996,26.43,120120,,,A*42
$GPRMC,195024.20,A,3203.01859,N,11042.41660,W,6.763,26.16,120120,,,A*46
$GPRMC,195024.40,A,3203.01894,N,11042.41640,W,6.756,26.23,120120,,,A*43
$GPRMC,195024.60,A,3203.01932,N,11042.41619,W,6.868,26.80,120120,,,A*4B
$GPRMC,195024.80,A,3203.01966,N,11042.41598,W,6.805,27.57,120120,,,A*4E
$GPRMC,195025.00,A,3203.02000,N,11042.41575,W,6.903,28.27,120120,,,A*41
$GPRMC,195025.20,A,3203.02034,N,11042.41553,W,6.994,28.53,120120,,,A*4D
$GPRMC,195025.40,A,3203.02066,N,11042.41529,W,6.911,29.59,120120,,,A*47
$GPRMC,195025.60,A,3203.02095,N,11042.41500,W,6.971,32.48,120120,,,A*4E
$GPRMC,195025.80,A,3203.02128,N,11042.41474,W,7.029,33.35,120120,,,A*4B
$GPRMC,195026.00,A,3203.02158,N,11042.41445,W,7.068,35.30,120120,,,A*43
$GPRMC,195026.20,A,3203.02187,N,11042.41414,W,7.153,36.92,120120,,,A*45
$GPRMC,195026.40,A,3203.02215,N,11042.41382,W,7.120,38.99,120120,,,A*42
$GPRMC,195026.60,A,3203.02245,N,11042.41353,W,7.140,39.66,120120,,,A*4E
$GPRMC,195026.80,A,3203.02274,N,11042.41318,W,7.349,42.07,120120,,,A*4D
$GPRMC,195027.00,A,3203.02297,N,11042.41283,W,7.225,44.64,120120,,,A*42
$GPRMC,195027.20,A,3203.02319,N,11042.41245,W,7.128,47.76,120120,,,A*43
$GPRMC,195027.40,A,3203.02334,N,11042.41204,W,6.893,53.55,120120,,,A*43
$GPRMC,195027.60,A,3203.02352,N,11042.41167,W,6.723,56.87,120120,,,A*49
$GPRMC,195027.80,A,3203.02365,N,11042.41124,W,6.910,60.99,120120,,,A*40
$GPRMC,195028.00,A,3203.02377,N,11042.41080,W,6.998,64.75,120120,,,A*4D
$GPRMC,195028.20,A,3203.02385,N,11042.41034,W,7.128,68.89,120120,,,A*40
$GPRMC,195028.40,A,3203.02397,N,11042.40989,W,7.099,70.83,120120,,,A*43
$GPRMC,195028.60,A,3203.02405,N,11042.40943,W,7.076,72.79,120120,,,A*4D
$GPRMC,195028.80,A,3203.02410,N,11042.40898,W,7.000,75.07,120120,,,A*4F
$GPRMC,195029.00,A,3203.02408,N,11042.40851,W,6.894,80.60,120120,,,A*45
$GPRMC,195029.20,A,3203.02403,N,11042.40802,W,7.017,85.50,120120,,,A*4E
$GPRMC,195029.40,A,3203.02396,N,11042.40756,W,6.996,89.48,120120,,,A*49
$GPRMC,195029.60,A,3203.02384,N,11042.40704,W,7.379,94.29,120120,,,A*4E
$GPRMC,195029.80,A,3203.02372,N,11042.40657,W,7.440,98.54,120120,,,A*45
$GPRMC,195030.00,A,3203.02358,N,11042.40609,W,7.623,101.84,120120,,,A*7D
$GPRMC,195030.20,A,3203.02341,N,11042.40563,W,7.664,105.01,120120,,,A*72
$GPRMC,195030.40,A,3203.02327,N,11042.40517,W,7.610,106.88,120120,,,A*76
$GPRMC,195030.60,A,3203.02314,N,11042.40471,W,7.496,108.08,120120,,,A*7F
$GPRMC,195030.80,A,3203.02298,N,11042.40425,W,7.645,109.76,120120,,,A*71
$GPRMC,195031.00,A,3203.02280,N,11042.40378,W,7.531,110.52,120120,,,A*70
$GPRMC,195031.20,A,3203.02259,N,11042.40329,W,7.749,111.55,120120,,,A*79
$GPRMC,195031.40,A,3203.02238,N,11042.40284,W,7.497,112.79,120120,,,A*73
$GPRMC,195031.60,A,3203.02217,N,11042.40235,W,7.793,113.18,120120,,,A*77
$GPRMC,195031.80,A,3203.02195,N,11042.40190,W,7.671,113.83,120120,,,A*73
$GPRMC,195032.00,A,3203.02176,N,11042.40143,W,7.684,113.32,120120,,,A*7B
$GPRMC,195032.20,A,3203.02159,N,11042.40094,W,7.914,112.18,120120,,,A*70
$GPRMC,195032.40,A,3203.02142,N,11042.40045,W,7.981,110.86,120120,,,A*79
$GPRMC,195032.60,A,3203.02124,N,11042.39996,W,8.070,110.56,120120,,,A*77
$GPRMC,195032.80,A,3203.02112,N,11042.39947,W,7.906,108.60,120120,,,A*7B
$GPRMC,195033.00,A,3203.02100,N,11042.39896,W,8.033,107.29,120120,,,A*7E
$GPRMC,195033.20,A,3203.02089,N,11042.39843,W,8.150,105.47,120120,,,A*7A
$GPRMC,195033.40,A,3203.02076,N,11042.39791,W,8.210,104.73,120120,,,A*7D
$GPRMC,195033.60,A,3203.02067,N,11042.39738,W,8.358,102.73,120120,,,A*77
$GPRMC,195033.80,A,3203.02056,N,11042.39684,W,8.406,102.56,120120,,,A*76
$GPRMC,195034.00,A,3203.02048,N,11042.39630,W,8.520,101.45,120120,,,A*7D
$GPRMC,195034.20,A,3203.02039,N,11042.39577,W,8.357,100.47,120120,,,A*7C
$GPRMC,195034.40,A,3203.02030,N,11042.39523,W,8.477,100.50,120120,,,A*71
$GPRMC,195034.60,A,3203.02020,N,11042.39471,W,8.492,100.59,120120,,,A*76
$GPRMC,195034.80,A,3203.02011,N,11042.39420,W,8.604,101.25,120120,,,A*79
$GPRMC,195035.00,A,3203.02000,N,11042.39367,W,8.578,102.30,120120,,,A*7B
$GPRMC,195035.20,A,3203.01989,N,11042.39316,W,8.366,103.07,120120,,,A*78
$GPRMC,195035.40,A,3203.01975,N,11042.39263,W,8.438,104.05,120120,,,A*77
$GPRMC,195035.60,A,3203.01961,N,11042.39210,W,8.532,105.23,120120,,,A*7A
$GPRMC,195035.80,A,3203.01948,N,11042.39157,W,8.549,105.87,120120,,,A*7D
$GPRMC,195036.00,A,3203.01934,N,11042.39105,W,8.491,107.17,120120,,,A*75
$GPRMC,195036.20,A,3203.01918,N,11042.39054,W,8.396,108.25,120120,,,A*72
$GPRMC,195036.40,A,3203.01898,N,11042.39001,W,8.485,109.89,120120,,,A*7F
$GPRMC,195036.60,A,3203.01876,N,11042.38950,W,8.389,111.25,120120,,,A*75
$GPRMC,195036.80,A,3203.01856,N,11042.38898,W,8.484,112.03,120120,,,A*71
$GPRMC,195037.00,A,3203.01832,N,11042.38848,W,8.533,113.21,120120,,,A*7B
$GPRMC,195037.20,A,3203.01806,N,11042.38797,W,8.546,113.84,120120,,,A*7E
$GPRMC,195037.40,A,3203.01778,N,11042.38748,W,8.353,115.56,120120,,,A*77
$GPRMC,195037.60,A,3203.01754,N,11042.38699,W,8.408,117.06,120120,,,A*78
$GPRMC,195037.80,A,3203.01722,N,11042.38651,W,8.442,119.04,120120,,,A*71
$GPRMC,195038.00,A,3203.01698,N,11042.38603,W,8.446,119.85,120120,,,A*7C
$GPRMC,195038.20,A,3203.01672,N,11042.38557,W,8.425,121.43,120120,,,A*7C
$GPRMC,195038.40,A,3203.01645,N,11042.38513,W,8.353,123.55,120120,,,A*7D
$GPRMC,195038.60,A,3203.01616,N,11042.38471,W,8.291,125.96,120120,,,A*7A
$GPRMC,195038.80,A,3203.01588,N,11042.38430,W,8.175,127.51,120120,,,A*75
$GPRMC,195039.00,A,3203.01557,N,11042.38390,W,8.129,129.83,120120,,,A*7B
$GPRMC,195039.20,A,3203.01524,N,11042.38358,W,7.858,133.43,120120,,,A*7E
$GPRMC,195039.40,A,3203.01492,N,11042.38319,W,7.877,135.80,120120,,,A*75
$GPRMC,195039.60,A,3203.01457,N,11042.38282,W,8.100,136.86,120120,,,A*7E
$GPRMC,195039.80,A,3203.01420,N,11042.38247,W,8.216,138.53,120120,,,A*7B
$GPRMC,195040.00,A,3203.01385,N,11042.38221,W,7.865,142.55,120120,,,A*7F
$GPRMC,195040.20,A,3203.01357,N,11042.38198,W,7.301,144.03,120120,,,A*7F
$GPRMC,195040.40,A,3203.01304,N,11042.38174,W,8.294,150.69,120120,,,A*76
$GPRMC,195040.60,A,3203.01266,N,11042.38159,W,7.787,154.23,120120,,,A*7C
$GPRMC,195040.80,A,3203.01213,N,11042.38143,W,7.738,158.30,120120,,,A*71
$GPRMC,195041.00,A,3203.01181,N,11042.38124,W,7.640,159.18,120120,,,A*74
$GPRMC,195041.20,A,3203.01139,N,11042.38120,W,7.593,164.36,120120,,,A*7E
$GPRMC,195041.40,A,3203.01097,N,11042.38112,W,7.582,166.64,120120,,,A*79
$GPRMC,195041.60,A,3203.01055,N,11042.38113,W,7.590,170.90,120120,,,A*7B
$GPRMC,195041.80,A,3203.01015,N,11042.38110,W,7.380,172.89,120120,,,A*7F
$GPRMC,195042.00,A,3203.00980,N,11042.38112,W,6.944,176.18,120120,,,A*7D
$GPRMC,195042.20,A,3203.00943,N,11042.38119,W,6.999,180.39,120120,,,A*71
$GPRMC,195042.40,A,3203.00897,N,11042.38130,W,7.671,185.49,120120,,,A*7E
$GPRMC,195042.60,A,3203.00859,N,11042.38138,W,7.364,188.04,120120,,,A*73
$GPRMC,195042.80,A,3203.00819,N,11042.38149,W,7.364,190.78,120120,,,A*7D
$GPRMC,195043.00,A,3203.00780,N,11042.38160,W,7.351,193.02,120120,,,A*78
$GPRMC,195043.20,A,3203.00740,N,11042.38172,W,7.396,193.82,120120,,,A*76
$GPRMC,195043.40,A,3203.00700,N,11042.38190,W,7.260,196.50,120120,,,A*7A
$GPRMC,195043.60,A,3203.00660,N,11042.38211,W,7.315,200.52,120120,,,A*78
$GPRMC,195043.80,A,3203.00618,N,11042.38232,W,7.514,202.02,120120,,,A*78
$GPRMC,195044.00,A,3203.00580,N,11042.38249,W,7.429,202.59,120120,,,A*78
$GPRMC,195044.20,A,3203.00542,N,11042.38272,W,7.533,203.73,120120,,,A*7F
$GPRMC,195044.40,A,3203.00502,N,11042.38295,W,7.643,204.39,120120,,,A*79
$GPRMC,195044.60,A,3203.00459,N,11042.38333,W,8.338,208.30,120120,,,A*7A
$GPRMC,195044.80,A,3203.00418,N,11042.38363,W,8.518,209.50,120120,,,A*77
$GPRMC,195045.00,A,3203.00379,N,11042.38396,W,8.455,210.51,120120,,,A*75
$GPRMC,195045.20,A,3203.00339,N,11042.38428,W,8.687,211.70,120120,,,A*7E
$GPRMC,195045.40,A,3203.00298,N,11042.38463,W,8.825,214.26,120120,,,A*7D
$GPRMC,195045.60,A,3203.00258,N,11042.38493,W,8.568,213.36,120120,,,A*7E
$GPRMC,195045.80,A,3203.00216,N,11042.38526,W,8.732,213.11,120120,,,A*7D
$GPRMC,195046.00,A,3203.00173,N,11042.38561,W,9.184,213.70,120120,,,A*78
$GPRMC,195046.20,A,3203.00133,N,11042.38596,W,9.153,214.26,120120,,,A*78
$GPRMC,195046.40,A,3203.00091,N,11042.38633,W,9.316,213.94,120120,,,A*76
$GPRMC,195046.60,A,3203.00045,N,11042.38665,W,9.487,213.07,120120,,,A*7B
$GPRMC,195046.80,A,3203.00001,N,11042.38699,W,9.535,213.09,120120,,,A*70
$GPRMC,195047.00,A,3202.99958,N,11042.38736,W,9.592,213.71,120120,,,A*7B
$GPRMC,195047.20,A,3202.99915,N,11042.38770,W,9.729,212.93,120120,,,A*7D
$GPRMC,195047.40,A,3202.99869,N,11042.38802,W,9.732,212.06,120120,,,A*7D
$GPRMC,195047.60,A,3202.99827,N,11042.38837,W,9.478,212.37,120120,,,A*7C
$GPRMC,195047.80,A,3202.99784,N,11042.38873,W,9.631,212.60,120120,,,A*79
$GPRMC,195048.00,A,3202.99742,N,11042.38908,W,9.605,212.25,120120,,,A*7F
$GPRMC,195048.20,A,3202.99701,N,11042.38941,W,9.387,212.35,120120,,,A*79
$GPRMC,195048.40,A,3202.99662,N,11042.38974,W,9.204,212.12,120120,,,A*72
$GPRMC,195048.60,A,3202.99625,N,11042.39006,W,8.915,211.83,120120,,,A*7F
$GPRMC,195048.80,A,3202.99585,N,11042.39039,W,8.932,211.97,120120,,,A*74
$GPRMC,195049.00,A,3202.99546,N,11042.39069,W,8.799,211.96,120120,,,A*79
$GPRMC,195049.20,A,3202.99507,N,11042.39101,W,8.760,211.26,120120,,,A*7C
$GPRMC,195049.40,A,3202.99472,N,11042.39130,W,8.219,211.14,120120,,,A*71
$GPRMC,195049.60,A,3202.99435,N,11042.39158,W,8.155,210.82,120120,,,A*7B
$GPRMC,195049.80,A,3202.99403,N,11042.39184,W,7.571,210.77,120120,,,A*76
$GPRMC,195050.00,A,3202.99371,N,11042.39208,W,7.269,210.90,120120,,,A*74
$GPRMC,195050.20,A,3202.99341,N,11042.39232,W,6.920,211.11,120120,,,A*73
$GPRMC,195050.40,A,3202.99310,N,11042.39257,W,6.838,211.35,120120,,,A*7C
$GPRMC,195050.60,A,3202.99278,N,11042.39281,W,6.803,211.31,120120,,,A*76
$GPRMC,195050.80,A,3202.99247,N,11042.39306,W,6.719,211.92,120120,,,A*77
$GPRMC,195051.00,A,3202.99218,N,11042.39331,W,6.697,212.02,120120,,,A*7D
$GPRMC,195051.20,A,3202.99189,N,11042.39356,W,6.565,212.64,120120,,,A*7B
$GPRMC,195051.40,A,3202.99159,N,11042.39383,W,6.628,213.92,120120,,,A*7A
$GPRMC,195051.60,A,3202.99130,N,11042.39409,W,6.610,214.72,120120,,,A*70
$GPRMC,195051.80,A,3202.99104,N,11042.39439,W,6.641,217.31,120120,,,A*7A
$GPRMC,195052.00,A,3202.99075,N,11042.39470,W,6.883,218.96,120120,,,A*79
$GPRMC,195052.20,A,3202.99045,N,11042.39502,W,7.160,219.89,120120,,,A*76
$GPRMC,195052.40,A,3202.99016,N,11042.39536,W,7.336,221.91,120120,,,A*72
$GPRMC,195052.60,A,3202.98987,N,11042.39573,W,7.544,225.17,120120,,,A*78
$GPRMC,195052.80,A,3202.98961,N,11042.39612,W,7.505,227.94,120120,,,A*76
$GPRMC,195053.00,A,3202.98938,N,11042.39656,W,7.598,231.74,120120,,,A*7E
$GPRMC,195053.20,A,3202.98920,N,11042.39701,W,7.731,236.50,120120,,,A*76
$GPRMC,195053.40,A,3202.98904,N,11042.39750,W,8.056,241.12,120120,,,A*7D
$GPRMC,195053.60,A,3202.98886,N,11042.39801,W,8.452,243.07,120120,,,A*79
$GPRMC,195053.80,A,3202.98873,N,11042.39855,W,8.364,246.11,120120,,,A*7C
$GPRMC,195054.00,A,3202.98860,N,11042.39921,W,9.198,249.14,120120,,,A*79
$GPRMC,195054.20,A,3202.98851,N,11042.39987,W,9.693,253.64,120120,,,A*75
$GPRMC,195054.40,A,3202.98844,N,11042.40054,W,9.953,257.36,120120,,,A*7E
$GPRMC,195054.60,A,3202.98840,N,11042.40120,W,9.928,261.22,120120,,,A*76
$GPRMC,195054.80,A,3202.98836,N,11042.40189,W,10.446,263.94,120120,,,A*48
$GPRMC,195055.00,A,3202.98834,N,11042.40259,W,10.630,265.85,120120,,,A*48
$GPRMC,195055.20,A,3202.98834,N,11042.40332,W,11.043,267.28,120120,,,A*40
$GPRMC,195055.40,A,3202.98836,N,11042.40407,W,11.431,269.16,120120,,,A*47
$GPRMC,195055.60,A,3202.98838,N,11042.40484,W,11.750,270.29,120120,,,A*40
$GPRMC,195055.80,A,3202.98842,N,11042.40563,W,12.064,271.52,120120,,,A*45
$GPRMC,195056.00,A,3202.98847,N,11042.40643,W,12.324,272.35,120120,,,A*4F
$GPRMC,195056.20,A,3202.98851,N,11042.40725,W,12.608,272.82,120120,,,A*4C
$GPRMC,195056.40,A,3202.98857,N,11042.40809,W,12.844,273.32,120120,,,A*41
$GPRMC,195056.60,A,3202.98864,N,11042.40892,W,12.861,273.96,120120,,,A*48
$GPRMC,195056.80,A,3202.98872,N,11042.40978,W,13.021,274.45,120120,,,A*40
$GPRMC,195057.00,A,3202.98878,N,11042.41062,W,12.936,274.64,120120,,,A*4D
$GPRMC,195057.20,A,3202.98884,N,11042.41146,W,13.000,275.03,120120,,,A*46
$GPRMC,195057.40,A,3202.98893,N,11042.41231,W,12.965,275.93,120120,,,A*47
$GPRMC,195057.60,A,3202.98901,N,11042.41316,W,13.019,276.29,120120,,,A*4A
$GPRMC,195057.80,A,3202.98912,N,11042.41403,W,12.982,277.19,120120,,,A*4D
$GPRMC,195058.00,A,3202.98922,N,11042.41490,W,13.094,277.54,120120,,,A*45
$GPRMC,195058.20,A,3202.98932,N,11042.41574,W,13.010,277.83,120120,,,A*4B
$GPRMC,195058.40,A,3202.98941,N,11042.41657,W,12.819,277.76,120120,,,A*41
$GPRMC,195058.60,A,3202.98948,N,11042.41739,W,12.717,277.43,120120,,,A*44
$GPRMC,195058.80,A,3202.98957,N,11042.41820,W,12.635,277.08,120120,,,A*4D
$GPRMC,195059.00,A,3202.98964,N,11042.41899,W,12.313,276.85,120120,,,A*43
$GPRMC,195059.20,A,3202.98969,N,11042.41975,W,11.952,276.55,120120,,,A*4E
$GPRMC,195059.40,A,3202.98975,N,11042.42049,W,11.588,276.17,120120,,,A*4D
$GPRMC,195059.60,A,3202.98978,N,11042.42120,W,11.145,275.78,120120,,,A*43
$GPRMC,195059.80,A,3202.98987,N,11042.42192,W,10.944,276.20,120120,,,A*42
$GPRMC,195100.00,A,3202.98990,N,11042.42258,W,10.526,276.12,120120,,,A*4D
$GPRMC,195100.20,A,3202.98995,N,11042.42323,W,10.226,276.01,120120,,,A*42
$GPRMC,195100.40,A,3202.99001,N,11042.42387,W,9.934,276.14,120120,,,A*7B
$GPRMC,195100.60,A,3202.99008,N,11042.42449,W,9.526,276.45,120120,,,A*7E
$GPRMC,195100.80,A,3202.99017,N,11042.42510,W,9.234,277.69,120120,,,A*78
$GPRMC,195101.00,A,3202.99028,N,11042.42568,W,8.959,279.47,120120,,,A*71
$GPRMC,195101.20,A,3202.99039,N,11042.42622,W,8.689,281.46,120120,,,A*7A
$GPRMC,195101.40,A,3202.99052,N,11042.42679,W,8.687,282.21,120120,,,A*73
$GPRMC,195101.60,A,3202.99066,N,11042.42732,W,8.557,283.66,120120,,,A*74
$GPRMC,195101.80,A,3202.99085,N,11042.42784,W,8.249,286.21,120120,,,A*74
$GPRMC,195102.00,A,3202.99112,N,11042.42837,W,8.400,290.42,120120,,,A*7E
$GPRMC,195102.20,A,3202.99131,N,11042.42880,W,7.847,294.19,120120,,,A*7B
$GPRMC,195102.40,A,3202.99157,N,11042.42927,W,7.820,297.13,120120,,,A*79
$GPRMC,195102.60,A,3202.99183,N,11042.42971,W,7.779,299.35,120120,,,A*78
$GPRMC,195102.80,A,3202.99208,N,11042.43008,W,7.587,301.76,120120,,,A*74
$GPRMC,195103.00,A,3202.99236,N,11042.43038,W,7.604,306.93,120120,,,A*77
$GPRMC,195103.20,A,3202.99269,N,11042.43060,W,7.393,312.07,120120,,,A*71
$GPRMC,195103.40,A,3202.99299,N,11042.43081,W,6.803,316.29,120120,,,A*7C
$GPRMC,195103.60,A,3202.99333,N,11042.43103,W,6.997,320.75,120120,,,A*74
$GPRMC,195103.80,A,3202.99373,N,11042.43115,W,7.041,327.19,120120,,,A*77
$GPRMC,195104.00,A,3202.99409,N,11042.43136,W,6.974,330.24,120120,,,A*75
$GPRMC,195104.20,A,3202.99451,N,11042.43149,W,7.120,334.43,120120,,,A*7F
$GPRMC,195104.40,A,3202.99490,N,11042.43159,W,7.138,338.17,120120,,,A*71
$GPRMC,195104.60,A,3202.99528,N,11042.43157,W,7.014,343.74,120120,,,A*79
$GPRMC,195104.80,A,3202.99565,N,11042.43148,W,7.097,350.04,120120,,,A*7E
$GPRMC,195105.00,A,3202.99607,N,11042.43139,W,7.387,355.38,120120,,,A*7E
$GPRMC,195105.20,A,3202.99642,N,11042.43118,W,7.462,2.23,120120,,,A*79
$GPRMC,195105.40,A,3202.99684,N,11042.43094,W,7.856,10.26,120120,,,A*4D
$GPRMC,195105.60,A,3202.99721,N,11042.43069,W,8.035,16.21,120120,,,A*40
$GPRMC,195105.80,A,3202.99756,N,11042.43044,W,7.995,19.96,120120,,,A*4E
$GPRMC,195106.00,A,3202.99792,N,11042.43019,W,8.123,22.41,120120,,,A*4D
$GPRMC,195106.20,A,3202.99836,N,11042.42992,W,8.578,24.28,120120,,,A*46
$GPRMC,195106.40,A,3202.99878,N,11042.42965,W,9.012,25.71,120120,,,A*47
$GPRMC,195106.60,A,3202.99918,N,11042.42931,W,9.395,26.54,120120,,,A*4B
$GPRMC,195106.80,A,3202.99965,N,11042.42900,W,9.484,27.29,120120,,,A*41
$GPRMC,195107.00,A,3203.00016,N,11042.42870,W,9.823,27.47,120120,,,A*4B
$GPRMC,195107.20,A,3203.00066,N,11042.42837,W,9.970,27.87,120120,,,A*46
$GPRMC,195107.40,A,3203.00121,N,11042.42809,W,10.210,27.33,120120,,,A*75
$GPRMC,195107.60,A,3203.00173,N,11042.42773,W,10.465,28.18,120120,,,A*70
$GPRMC,195107.80,A,3203.00227,N,11042.42742,W,10.713,27.74,120120,,,A*79
$GPRMC,195108.00,A,3203.00281,N,11042.42705,W,10.879,28.02,120120,,,A*7C
$GPRMC,195108.20,A,3203.00340,N,11042.42661,W,11.265,28.88,120120,,,A*75
$GPRMC,195108.40,A,3203.00393,N,11042.42627,W,11.241,28.44,120120,,,A*79
$GPRMC,195108.60,A,3203.00450,N,11042.42589,W,11.450,28.31,120120,,,A*70
$GPRMC,195108.80,A,3203.00502,N,11042.42552,W,11.229,28.97,120120,,,A*7A
$GPRMC,195109.00,A,3203.00559,N,11042.42516,W,11.341,28.73,120120,,,A*78
$GPRMC,195109.20,A,3203.00614,N,11042.42479,W,11.303,29.03,120120,,,A*78
$GPRMC,195109.40,A,3203.00672,N,11042.42442,W,11.514,28.97,120120,,,A*7A
$GPRMC,195109.60,A,3203.00729,N,11042.42402,W,11.643,28.96,120120,,,A*73
$GPRMC,195109.80,A,3203.00790,N,11042.42361,W,11.728,28.63,120120,,,A*7B
$GPRMC,195110.00,A,3203.00846,N,11042.42323,W,11.553,28.71,120120,,,A*74
$GPRMC,195110.20,A,3203.00904,N,11042.42281,W,11.696,29.08,120120,,,A*7D
$GPRMC,195110.40,A,3203.00963,N,11042.42245,W,11.805,28.73,120120,,,A*7B
$GPRMC,195110.60,A,3203.01022,N,11042.42204,W,11.915,28.54,120120,,,A*74
$GPRMC,195110.80,A,3203.01082,N,11042.42167,W,11.804,28.38,120120,,,A*7D
$GPRMC,195111.00,A,3203.01140,N,11042.42128,W,11.752,28.84,120120,,,A*7B
$GPRMC,195111.20,A,3203.01199,N,11042.42092,W,11.811,28.19,120120,,,A*71
$GPRMC,195111.40,A,3203.01256,N,11042.42052,W,11.804,28.51,120120,,,A*73
$GPRMC,195111.60,A,3203.01314,N,11042.42014,W,11.784,28.24,120120,,,A*71
$GPRMC,195111.80,A,3203.01372,N,11042.41976,W,11.693,27.78,120120,,,A*70
$GPRMC,195112.00,A,3203.01429,N,11042.41939,W,11.687,27.58,120120,,,A*7E
$GPRMC,195112.20,A,3203.01486,N,11042.41902,W,11.650,27.73,120120,,,A*72
$GPRMC,195112.40,A,3203.01544,N,11042.41866,W,11.619,27.34,120120,,,A*76
$GPRMC,195112.60,A,3203.01602,N,11042.41830,W,11.632,27.06,120120,,,A*7E
$GPRMC,195112.80,A,3203.01657,N,11042.41795,W,11.469,26.98,120120,,,A*7A
$GPRMC,195113.00,A,3203.01712,N,11042.41761,W,11.283,27.24,120120,,,A*7C
$GPRMC,195113.20,A,3203.01768,N,11042.41728,W,11.220,26.98,120120,,,A*71
$GPRMC,195113.40,A,3203.01824,N,11042.41696,W,11.055,26.64,120120,,,A*77
$GPRMC,195113.60,A,3203.01877,N,11042.41665,W,10.685,26.44,120120,,,A*77
$GPRMC,195113.80,A,3203.01927,N,11042.41633,W,10.369,26.68,120120,,,A*77
$GPRMC,195114.00,A,3203.01976,N,11042.41602,W,10.204,27.27,120120,,,A*7E
$GPRMC,195114.20,A,3203.02022,N,11042.41571,W,9.887,28.05,120120,,,A*46
$GPRMC,195114.40,A,3203.02067,N,11042.41540,W,9.545,28.85,120120,,,A*48
$GPRMC,195114.60,A,3203.02110,N,11042.41507,W,9.399,29.78,120120,,,A*4C
$GPRMC,195114.80,A,3203.02152,N,11042.41474,W,9.263,30.97,120120,,,A*4C
$GPRMC,195115.00,A,3203.02191,N,11042.41439,W,9.055,32.88,120120,,,A*48
$GPRMC,195115.20,A,3203.02222,N,11042.41397,W,8.844,37.50,120120,,,A*4B
$GPRMC,195115.40,A,3203.02252,N,11042.41355,W,8.644,40.75,120120,,,A*4D
$GPRMC,195115.60,A,3203.02286,N,11042.41317,W,8.549,42.37,120120,,,A*4A
$GPRMC,195115.80,A,3203.02318,N,11042.41275,W,8.585,44.20,120120,,,A*47
$GPRMC,195116.00,A,3203.02346,N,11042.41228,W,8.606,47.57,120120,,,A*44
$GPRMC,195116.20,A,3203.02365,N,11042.41181,W,8.242,51.46,120120,,,A*44
$GPRMC,195116.40,A,3203.02382,N,11042.41132,W,8.114,55.77,120120,,,A*45
$GPRMC,195116.60,A,3203.02394,N,11042.41076,W,8.201,62.35,120120,,,A*44
$GPRMC,195116.80,A,3203.02410,N,11042.41024,W,8.205,64.77,120120,,,A*42
$GPRMC,195117.00,A,3203.02420,N,11042.40971,W,8.112,68.43,120120,,,A*4E
$GPRMC,195117.20,A,3203.02432,N,11042.40918,W,8.263,71.14,120120,,,A*4F
$GPRMC,195117.40,A,3203.02437,N,11042.40864,W,8.100,74.72,120120,,,A*45
$GPRMC,195117.60,A,3203.02433,N,11042.40807,W,8.169,80.16,120120,,,A*40
$GPRMC,195117.80,A,3203.02422,N,11042.40751,W,8.050,87.09,120120,,,A*40
$GPRMC,195118.00,A,3203.02413,N,11042.40695,W,8.002,91.09,120120,,,A*4C
$GPRMC,195118.20,A,3203.02403,N,11042.40643,W,7.986,95.50,120120,,,A*46
$GPRMC,195118.40,A,3203.02390,N,11042.40589,W,8.175,98.89,120120,,,A*4A
$GPRMC,195118.60,A,3203.02375,N,11042.40531,W,8.636,101.34,120120,,,A*77
$GPRMC,195118.80,A,3203.02362,N,11042.40482,W,8.253,103.36,120120,,,A*71
$GPRMC,195119.00,A,3203.02346,N,11042.40431,W,8.268,105.66,120120,,,A*7D
$GPRMC,195119.20,A,3203.02331,N,11042.40381,W,8.230,107.42,120120,,,A*7A
$GPRMC,195119.40,A,3203.02314,N,11042.40331,W,8.327,108.91,120120,,,A*76
$GPRMC,195119.60,A,3203.02295,N,11042.40275,W,8.691,109.83,120120,,,A*77
$GPRMC,195119.80,A,3203.02275,N,11042.40222,W,8.584,110.46,120120,,,A*73
$GPRMC,195120.00,A,3203.02256,N,11042.40167,W,8.684,110.73,120120,,,A*77
$GPRMC,195120.20,A,3203.02233,N,11042.40121,W,8.140,111.83,120120,,,A*75
$GPRMC,195120.40,A,3203.02214,N,11042.40067,W,8.542,111.66,120120,,,A*78
$GPRMC,195120.60,A,3203.02194,N,11042.40012,W,8.595,111.21,120120,,,A*7A
$GPRMC,195120.80,A,3203.02181,N,11042.39958,W,8.541,110.12,120120,,,A*71
$GPRMC,195121.00,A,3203.02166,N,11042.39905,W,8.646,108.10,120120,,,A*76
$GPRMC,195121.20,A,3203.02149,N,11042.39850,W,8.881,106.53,120120,,,A*74
$GPRMC,195121.40,A,3203.02133,N,11042.39791,W,9.016,104.94,120120,,,A*73
$GPRMC,195121.60,A,3203.02118,N,11042.39733,W,9.081,104.40,120120,,,A*77
$GPRMC,195121.80,A,3203.02106,N,11042.39672,W,9.302,103.24,120120,,,A*7F
$GPRMC,195122.00,A,3203.02094,N,11042.39614,W,9.260,102.61,120120,,,A*7B
$GPRMC,195122.20,A,3203.02083,N,11042.39554,W,9.450,102.25,120120,,,A*7D
$GPRMC,195122.40,A,3203.02069,N,11042.39495,W,9.481,102.72,120120,,,A*7D
$GPRMC,195122.60,A,3203.02054,N,11042.39435,W,9.472,103.20,120120,,,A*71
$GPRMC,195122.80,A,3203.02040,N,11042.39374,W,9.665,103.91,120120,,,A*76
$GPRMC,195123.00,A,3203.02026,N,11042.39312,W,9.753,104.35,120120,,,A*72
$GPRMC,195123.20,A,3203.02009,N,11042.39252,W,9.553,105.58,120120,,,A*70
$GPRMC,195123.40,A,3203.01989,N,11042.39189,W,9.522,106.82,120120,,,A*73
$GPRMC,195123.60,A,3203.01967,N,11042.39127,W,9.392,107.98,120120,,,A*72
$GPRMC,195123.80,A,3203.01944,N,11042.39067,W,9.559,109.39,120120,,,A*7C
$GPRMC,195124.00,A,3203.01921,N,11042.39006,W,9.709,110.14,120120,,,A*77
$GPRMC,195124.20,A,3203.01897,N,11042.38944,W,9.824,110.88,120120,,,A*72
$GPRMC,195124.40,A,3203.01874,N,11042.38882,W,9.858,111.52,120120,,,A*7F
$GPRMC,195124.60,A,3203.01851,N,11042.38821,W,9.788,111.74,120120,,,A*75
$GPRMC,195124.80,A,3203.01824,N,11042.38766,W,9.467,113.38,120120,,,A*7D
$GPRMC,195125.00,A,3203.01798,N,11042.38708,W,9.455,114.55,120120,,,A*79
$GPRMC,195125.20,A,3203.01771,N,11042.38652,W,9.629,116.26,120120,,,A*7D
$GPRMC,195125.40,A,3203.01742,N,11042.38600,W,9.405,118.08,120120,,,A*72
$GPRMC,195125.60,A,3203.01710,N,11042.38552,W,9.243,120.93,120120,,,A*7E
$GPRMC,195125.80,A,3203.01682,N,11042.38501,W,9.396,122.77,120120,,,A*7D
$GPRMC,195126.00,A,3203.01654,N,11042.38455,W,9.145,125.23,120120,,,A*77
$GPRMC,195126.20,A,3203.01622,N,11042.38412,W,9.006,127.86,120120,,,A*7C
$GPRMC,195126.40,A,3203.01590,N,11042.38368,W,8.934,129.73,120120,,,A*77
$GPRMC,195126.60,A,3203.01553,N,11042.38326,W,8.905,132.71,120120,,,A*7A
$GPRMC,195126.80,A,3203.01517,N,11042.38290,W,8.687,136.32,120120,,,A*7E
$GPRMC,195127.00,A,3203.01482,N,11042.38256,W,8.784,139.23,120120,,,A*7D
$GPRMC,195127.20,A,3203.01443,N,11042.38227,W,8.692,142.61,120120,,,A*78
$GPRMC,195127.40,A,3203.01409,N,11042.38199,W,8.293,143.63,120120,,,A*70
$GPRMC,195127.60,A,3203.01369,N,11042.38174,W,8.320,147.40,120120,,,A*7C
$GPRMC,195127.80,A,3203.01323,N,11042.38154,W,8.575,153.24,120120,,,A*7F
$GPRMC,195128.00,A,3203.01279,N,11042.38136,W,8.520,156.70,120120,,,A*76
$GPRMC,195128.20,A,3203.01227,N,11042.38124,W,8.515,160.98,120120,,,A*79
$GPRMC,195128.40,A,3203.01178,N,11042.38115,W,8.598,165.50,120120,,,A*70
$GPRMC,195128.60,A,3203.01128,N,11042.38107,W,8.944,169.61,120120,,,A*77
$GPRMC,195128.80,A,3203.01081,N,11042.38105,W,8.885,173.21,120120,,,A*7A
$GPRMC,195129.00,A,3203.01030,N,11042.38102,W,9.125,175.03,120120,,,A*7A
$GPRMC,195129.20,A,3203.00977,N,11042.38107,W,9.561,178.80,120120,,,A*74
$GPRMC,195129.40,A,3203.00935,N,11042.38117,W,8.935,182.66,120120,,,A*74
$GPRMC,195129.60,A,3203.00887,N,11042.38129,W,8.913,186.08,120120,,,A*7B
$GPRMC,195129.80,A,3203.00844,N,11042.38147,W,8.568,191.69,120120,,,A*73
$GPRMC,195130.00,A,3203.00795,N,11042.38162,W,8.626,193.88,120120,,,A*73
$GPRMC,195130.20,A,3203.00750,N,11042.38183,W,8.645,196.76,120120,,,A*76
$GPRMC,195130.40,A,3203.00707,N,11042.38202,W,8.413,198.59,120120,,,A*7A
$GPRMC,195130.60,A,3203.00660,N,11042.38227,W,8.740,200.42,120120,,,A*72
$GPRMC,195130.80,A,3203.00609,N,11042.38261,W,9.574,203.90,120120,,,A*79
$GPRMC,195131.00,A,3203.00562,N,11042.38298,W,9.917,207.31,120120,,,A*7E
$GPRMC,195131.20,A,3203.00515,N,11042.38330,W,9.790,208.38,120120,,,A*78
$GPRMC,195131.40,A,3203.00469,N,11042.38370,W,10.065,209.46,120120,,,A*4D
$GPRMC,195131.60,A,3203.00424,N,11042.38406,W,10.015,210.70,120120,,,A*4A
$GPRMC,195131.80,A,3203.00377,N,11042.38448,W,10.175,211.87,120120,,,A*41
$GPRMC,195132.00,A,3203.00331,N,11042.38486,W,10.002,212.27,120120,,,A*42
$GPRMC,195132.20,A,3203.00287,N,11042.38520,W,9.874,212.06,120120,,,A*73
$GPRMC,195132.40,A,3203.00242,N,11042.38557,W,9.968,212.57,120120,,,A*74
$GPRMC,195132.60,A,3203.00198,N,11042.38595,W,10.031,213.16,120120,,,A*45
$GPRMC,195132.80,A,3203.00148,N,11042.38630,W,10.300,212.40,120120,,,A*49
$GPRMC,195133.00,A,3203.00102,N,11042.38667,W,10.265,212.37,120120,,,A*4E
$GPRMC,195133.20,A,3203.00057,N,11042.38705,W,10.144,212.79,120120,,,A*42
$GPRMC,195133.40,A,3203.00012,N,11042.38741,W,10.005,212.49,120120,,,A*42
$GPRMC,195133.60,A,3202.99963,N,11042.38773,W,9.980,211.82,120120,,,A*77
$GPRMC,195133.80,A,3202.99913,N,11042.38809,W,10.234,211.79,120120,,,A*44
$GPRMC,195134.00,A,3202.99866,N,11042.38845,W,10.209,212.00,120120,,,A*43
$GPRMC,195134.20,A,3202.99820,N,11042.38879,W,10.132,211.37,120120,,,A*40
$GPRMC,195134.40,A,3202.99775,N,11042.38915,W,10.035,211.60,120120,,,A*46
$GPRMC,195134.60,A,3202.99729,N,11042.38949,W,9.931,211.51,120120,,,A*73
$GPRMC,195134.80,A,3202.99686,N,11042.38984,W,9.646,211.36,120120,,,A*76
$GPRMC,195135.00,A,3202.99642,N,11042.39018,W,9.596,211.73,120120,,,A*75
$GPRMC,195135.20,A,3202.99596,N,11042.39051,W,9.624,211.40,120120,,,A*7A
$GPRMC,195135.40,A,3202.99554,N,11042.39085,W,9.379,211.84,120120,,,A*7E
$GPRMC,195135.60,A,3202.99511,N,11042.39117,W,9.155,211.58,120120,,,A*7A
$GPRMC,195135.80,A,3202.99469,N,11042.39148,W,9.065,211.69,120120,,,A*70
$GPRMC,195136.00,A,3202.99428,N,11042.39180,W,8.949,211.99,120120,,,A*73
$GPRMC,195136.20,A,3202.99387,N,11042.39209,W,8.790,211.63,120120,,,A*7E
$GPRMC,195136.40,A,3202.99346,N,11042.39238,W,8.628,211.22,120120,,,A*70
$GPRMC,195136.60,A,3202.99309,N,11042.39267,W,8.264,211.62,120120,,,A*7B
$GPRMC,195136.80,A,3202.99274,N,11042.39294,W,7.750,211.79,120120,,,A*75
$GPRMC,195137.00,A,3202.99237,N,11042.39322,W,7.774,211.59,120120,,,A*73
$GPRMC,195137.20,A,3202.99201,N,11042.39350,W,7.643,212.16,120120,,,A*7C
$GPRMC,195137.40,A,3202.99170,N,11042.39381,W,7.430,213.90,120120,,,A*7A
$GPRMC,195137.60,A,3202.99139,N,11042.39412,W,7.317,215.55,120120,,,A*75
$GPRMC,195137.80,A,3202.99108,N,11042.39444,W,7.398,217.08,120120,,,A*77
$GPRMC,195138.00,A,3202.99078,N,11042.39475,W,7.243,217.81,120120,,,A*72
$GPRMC,195138.20,A,3202.99048,N,11042.39508,W,7.349,219.31,120120,,,A*76
$GPRMC,195138.40,A,3202.99027,N,11042.39548,W,7.297,224.82,120120,,,A*79
$GPRMC,195138.60,A,3202.99004,N,11042.39587,W,7.244,228.63,120120,,,A*74
$GPRMC,195138.80,A,3202.98986,N,11042.39630,W,7.228,233.35,120120,,,A*74
$GPRMC,195139.00,A,3202.98963,N,11042.39673,W,7.426,236.11,120120,,,A*7A
$GPRMC,195139.20,A,3202.98944,N,11042.39716,W,7.448,238.79,120120,,,A*77
$GPRMC,195139.40,A,3202.98925,N,11042.39765,W,7.715,242.26,120120,,,A*7E
$GPRMC,195139.60,A,3202.98910,N,11042.39817,W,7.871,245.31,120120,,,A*7C
$GPRMC,195139.80,A,3202.98897,N,11042.39874,W,8.260,248.55,120120,,,A*73
$GPRMC,195140.00,A,3202.98886,N,11042.39930,W,8.309,253.38,120120,,,A*7B
$GPRMC,195140.20,A,3202.98888,N,11042.39995,W,8.694,256.74,120120,,,A*74
$GPRMC,195140.40,A,3202.98885,N,11042.40062,W,9.167,258.42,120120,,,A*71
$GPRMC,195140.60,A,3202.98879,N,11042.40124,W,9.277,261.00,120120,,,A*7D
$GPRMC,195140.80,A,3202.98876,N,11042.40189,W,9.416,263.07,120120,,,A*7F
$GPRMC,195141.00,A,3202.98875,N,11042.40255,W,9.726,264.76,120120,,,A*76
$GPRMC,195141.20,A,3202.98873,N,11042.40326,W,10.191,266.55,120120,,,A*46
$GPRMC,195141.40,A,3202.98871,N,11042.40398,W,10.515,267.43,120120,,,A*49
$GPRMC,195141.60,A,3202.98874,N,11042.40474,W,11.050,269.19,120120,,,A*4F
$GPRMC,195141.80,A,3202.98876,N,11042.40549,W,11.291,270.72,120120,,,A*46
$GPRMC,195142.00,A,3202.98880,N,11042.40626,W,11.457,271.68,120120,,,A*48
$GPRMC,195142.20,A,3202.98884,N,11042.40703,W,11.628,272.22,120120,,,A*4F
$GPRMC,195142.40,A,3202.98887,N,11042.40781,W,11.857,272.84,120120,,,A*4A
$GPRMC,195142.60,A,3202.98891,N,11042.40857,W,11.840,273.35,120120,,,A*46
$GPRMC,195142.80,A,3202.98895,N,11042.40936,W,11.960,273.47,120120,,,A*4C
$GPRMC,195143.00,A,3202.98898,N,11042.41009,W,11.500,272.55,120120,,,A*44
$GPRMC,195143.20,A,3202.98893,N,11042.41080,W,11.133,270.09,120120,,,A*43
$GPRMC,195143.40,A,3202.98894,N,11042.41157,W,11.662,270.49,120120,,,A*4E
$GPRMC,195143.60,A,3202.98898,N,11042.41233,W,11.753,271.58,120120,,,A*43
$GPRMC,195143.80,A,3202.98904,N,11042.41313,W,11.961,272.20,120120,,,A*49
$GPRMC,195144.00,A,3202.98908,N,11042.41391,W,11.926,272.60,120120,,,A*47
$GPRMC,195144.20,A,3202.98912,N,11042.41470,W,12.007,273.03,120120,,,A*4B
$GPRMC,195144.40,A,3202.98913,N,11042.41547,W,11.877,272.61,120120,,,A*40
$GPRMC,195144.60,A,3202.98919,N,11042.41627,W,11.935,273.28,120120,,,A*46
$GPRMC,195144.80,A,3202.98923,N,11042.41706,W,11.868,273.12,120120,,,A*43
$GPRMC,195145.00,A,3202.98925,N,11042.41783,W,11.770,272.94,120120,,,A*48
$GPRMC,195145.20,A,3202.98926,N,11042.41859,W,11.791,272.47,120120,,,A*40
$GPRMC,195145.40,A,3202.98928,N,11042.41934,W,11.719,272.91,120120,,,A*49
$GPRMC,195145.60,A,3202.98931,N,11042.42007,W,11.555,272.92,120120,,,A*40
$GPRMC,195145.80,A,3202.98933,N,11042.42080,W,11.400,272.88,120120,,,A*49
$GPRMC,195146.00,A,3202.98936,N,11042.42151,W,11.289,273.04,120120,,,A*48
$GPRMC,195146.20,A,3202.98939,N,11042.42221,W,11.105,273.24,120120,,,A*44
$GPRMC,195146.40,A,3202.98943,N,11042.42291,W,10.983,272.88,120120,,,A*44
$GPRMC,195146.60,A,3202.98948,N,11042.42360,W,10.748,273.49,120120,,,A*47
$GPRMC,195146.80,A,3202.98954,N,11042.42427,W,10.423,274.38,120120,,,A*4F
$GPRMC,195147.00,A,3202.98962,N,11042.42490,W,9.879,276.20,120120,,,A*7F
$GPRMC,195147.20,A,3202.98973,N,11042.42553,W,9.701,278.41,120120,,,A*7A
$GPRMC,195147.40,A,3202.98985,N,11042.42613,W,9.354,279.93,120120,,,A*78
$GPRMC,195147.60,A,3202.98997,N,11042.42673,W,9.358,281.09,120120,,,A*77
$GPRMC,195147.80,A,3202.99016,N,11042.42732,W,9.319,283.99,120120,,,A*72
$GPRMC,195148.00,A,3202.99039,N,11042.42786,W,9.034,287.90,120120,,,A*76
$GPRMC,195148.20,A,3202.99066,N,11042.42842,W,9.242,292.40,120120,,,A*73
$GPRMC,195148.40,A,3202.99095,N,11042.42893,W,9.223,296.12,120120,,,A*71
$GPRMC,195148.60,A,3202.99137,N,11042.42945,W,9.661,301.70,120120,,,A*79
$GPRMC,195148.80,A,3202.99165,N,11042.42981,W,8.952,305.66,120120,,,A*75
$GPRMC,195149.00,A,3202.99210,N,11042.43010,W,8.772,312.68,120120,,,A*79
$GPRMC,195149.20,A,3202.99265,N,11042.43037,W,9.420,321.84,120120,,,A*7B
$GPRMC,195149.40,A,3202.99315,N,11042.43062,W,9.410,328.96,120120,,,A*72
$GPRMC,195149.60,A,3202.99361,N,11042.43073,W,9.008,336.43,120120,,,A*79
$GPRMC,195149.80,A,3202.99411,N,11042.43090,W,9.182,339.28,120120,,,A*7B
$GPRMC,195150.00,A,3202.99458,N,11042.43103,W,8.965,341.40,120120,,,A*7C
$GPRMC,195150.20,A,3202.99506,N,11042.43110,W,8.871,345.40,120120,,,A*76
$GPRMC,195150.40,A,3202.99558,N,11042.43104,W,9.196,351.58,120120,,,A*73
$GPRMC,195150.60,A,3202.99606,N,11042.43100,W,9.175,356.01,120120,,,A*7B
$GPRMC,195150.80,A,3202.99653,N,11042.43092,W,9.162,359.74,120120,,,A*74
$GPRMC,195151.00,A,3202.99700,N,11042.43077,W,9.240,3.65,120120,,,A*7E
$GPRMC,195151.20,A,3202.99748,N,11042.43053,W,9.387,8.28,120120,,,A*7E
$GPRMC,195151.40,A,3202.99787,N,11042.43011,W,9.454,16.64,120120,,,A*43
$GPRMC,195151.60,A,3202.99837,N,11042.42975,W,9.987,22.28,120120,,,A*43
$GPRMC,195151.80,A,3202.99893,N,11042.42939,W,10.780,24.85,120120,,,A*7B
$GPRMC,195152.00,A,3202.99951,N,11042.42902,W,11.303,26.33,120120,,,A*76
$GPRMC,195152.20,A,3203.00010,N,11042.42864,W,11.702,27.23,120120,,,A*7D
$GPRMC,195152.40,A,3203.00072,N,11042.42826,W,12.142,27.52,120120,,,A*7E
$GPRMC,195152.60,A,3203.00138,N,11042.42786,W,12.710,28.90,120120,,,A*76
$GPRMC,195152.80,A,3203.00204,N,11042.42746,W,12.926,28.78,120120,,,A*75
$GPRMC,195153.00,A,3203.00269,N,11042.42701,W,13.301,29.31,120120,,,A*76
$GPRMC,195153.20,A,3203.00339,N,11042.42658,W,13.726,28.74,120120,,,A*7C
$GPRMC,195153.40,A,3203.00405,N,11042.42615,W,13.725,28.64,120120,,,A*79
$GPRMC,195153.60,A,3203.00473,N,11042.42570,W,13.820,28.43,120120,,,A*75
$GPRMC,195153.80,A,3203.00542,N,11042.42521,W,14.044,28.88,120120,,,A*76
$GPRMC,195154.00,A,3203.00617,N,11042.42475,W,14.547,28.18,120120,,,A*75
$GPRMC,195154.20,A,3203.00690,N,11042.42427,W,14.620,28.22,120120,,,A*74
$GPRMC,195154.40,A,3203.00763,N,11042.42380,W,14.807,28.55,120120,,,A*7E
$GPRMC,195154.60,A,3203.00833,N,11042.42329,W,14.825,29.37,120120,,,A*70
$GPRMC,195154.80,A,3203.00902,N,11042.42279,W,14.653,29.49,120120,,,A*7F
$GPRMC,195155.00,A,3203.00976,N,11042.42231,W,14.896,28.88,120120,,,A*72
$GPRMC,195155.20,A,3203.01049,N,11042.42183,W,14.877,28.76,120120,,,A*70
$GPRMC,195155.40,A,3203.01119,N,11042.42133,W,14.765,28.94,120120,,,A*79
$GPRMC,195155.60,A,3203.01189,N,11042.42084,W,14.622,29.13,120120,,,A*73
$GPRMC,195155.80,A,3203.01254,N,11042.42031,W,14.416,30.21,120120,,,A*7C
$GPRMC,195156.00,A,3203.01319,N,11042.41979,W,14.229,30.98,120120,,,A*71
$GPRMC,195156.20,A,3203.01391,N,11042.41935,W,14.179,30.04,120120,,,A*78
$GPRMC,195156.40,A,3203.01463,N,11042.41891,W,14.100,28.74,120120,,,A*7B
$GPRMC,195156.60,A,3203.01536,N,11042.41851,W,13.953,27.17,120120,,,A*77
$GPRMC,195156.80,A,3203.01605,N,11042.41808,W,13.863,26.25,120120,,,A*74
$GPRMC,195157.00,A,3203.01671,N,11042.41767,W,13.535,25.95,120120,,,A*7E
$GPRMC,195157.20,A,3203.01738,N,11042.41727,W,13.403,25.41,120120,,,A*79
$GPRMC,195157.40,A,3203.01803,N,11042.41686,W,13.189,26.82,120120,,,A*79
$GPRMC,195157.60,A,3203.01863,N,11042.41646,W,12.745,27.36,120120,,,A*78
$GPRMC,195157.80,A,3203.01920,N,11042.41605,W,12.438,28.06,120120,,,A*72
$GPRMC,195158.00,A,3203.01976,N,11042.41562,W,12.216,28.85,120120,,,A*75
$GPRMC,195158.20,A,3203.02029,N,11042.41520,W,11.916,30.22,120120,,,A*7D
$GPRMC,195158.40,A,3203.02080,N,11042.41472,W,11.720,32.42,120120,,,A*71
$GPRMC,195158.60,A,3203.02125,N,11042.41427,W,11.271,34.09,120120,,,A*75
$GPRMC,195158.80,A,3203.02168,N,11042.41375,W,11.200,37.21,120120,,,A*7D
$GPRMC,195159.00,A,3203.02218,N,11042.41327,W,11.227,38.84,120120,,,A*72
$GPRMC,195159.20,A,3203.02254,N,11042.41276,W,10.801,40.91,120120,,,A*79
$GPRMC,195159.40,A,3203.02282,N,11042.41222,W,10.387,43.95,120120,,,A*77
$GPRMC,195159.60,A,3203.02315,N,11042.41166,W,10.539,47.01,120120,,,A*73
$GPRMC,195159.80,A,3203.02321,N,11042.41098,W,10.122,55.31,120120,,,A*74
$GPRMC,195200.00,A,3203.02342,N,11042.41037,W,10.071,59.42,120120,,,A*7C
$GPRMC,195200.20,A,3203.02351,N,11042.40965,W,10.494,65.45,120120,,,A*74
$GPRMC,195200.40,A,3203.02361,N,11042.40898,W,10.299,69.61,120120,,,A*73
$GPRMC,195200.60,A,3203.02363,N,11042.40827,W,10.368,74.49,120120,,,A*7E
$GPRMC,195200.80,A,3203.02367,N,11042.40760,W,10.270,78.41,120120,,,A*74
$GPRMC,195201.00,A,3203.02361,N,11042.40693,W,10.128,83.50,120120,,,A*7C
$GPRMC,195201.20,A,3203.02346,N,11042.40627,W,10.037,90.21,120120,,,A*7F
$GPRMC,195201.40,A,3203.02332,N,11042.40559,W,10.179,94.46,120120,,,A*7E
$GPRMC,195201.60,A,3203.02317,N,11042.40492,W,10.324,97.99,120120,,,A*76
$GPRMC,195201.80,A,3203.02302,N,11042.40433,W,10.013,101.10,120120,,,A*4F
$GPRMC,195202.00,A,3203.02280,N,11042.40366,W,10.395,104.48,120120,,,A*4D
$GPRMC,195202.20,A,3203.02253,N,11042.40295,W,10.856,107.55,120120,,,A*47
$GPRMC,195202.40,A,3203.02227,N,11042.40222,W,11.175,109.03,120120,,,A*4A
$GPRMC,195202.60,A,3203.02200,N,11042.40151,W,11.292,110.26,120120,,,A*4F
$GPRMC,195202.80,A,3203.02175,N,11042.40078,W,11.550,110.69,120120,,,A*48
$GPRMC,195203.00,A,3203.02153,N,11042.40000,W,11.827,109.04,120120,,,A*44
$GPRMC,195203.20,A,3203.02132,N,11042.39924,W,11.760,108.03,120120,,,A*4A
$GPRMC,195203.40,A,3203.02113,N,11042.39845,W,11.974,106.37,120120,,,A*4B
$GPRMC,195203.60,A,3203.02093,N,11042.39766,W,12.233,105.68,120120,,,A*4C
$GPRMC,195203.80,A,3203.02076,N,11042.39686,W,12.350,104.85,120120,,,A*40
$GPRMC,195204.00,A,3203.02061,N,11042.39602,W,12.740,103.50,120120,,,A*4F
$GPRMC,195204.20,A,3203.02044,N,11042.39521,W,12.705,103.22,120120,,,A*4C
$GPRMC,195204.40,A,3203.02028,N,11042.39441,W,12.678,102.94,120120,,,A*40
$GPRMC,195204.60,A,3203.02015,N,11042.39360,W,12.727,102.60,120120,,,A*48
$GPRMC,195204.80,A,3203.01995,N,11042.39281,W,12.808,103.55,120120,,,A*4F
$GPRMC,195205.00,A,3203.01977,N,11042.39206,W,12.483,104.44,120120,,,A*4D
$GPRMC,195205.20,A,3203.01955,N,11042.39128,W,12.621,106.05,120120,,,A*4D
$GPRMC,195205.40,A,3203.01932,N,11042.39051,W,12.484,107.31,120120,,,A*4E
$GPRMC,195205.60,A,3203.01905,N,11042.38972,W,12.633,108.21,120120,,,A*41
$GPRMC,195205.80,A,3203.01882,N,11042.38896,W,12.481,108.66,120120,,,A*42
$GPRMC,195206.00,A,3203.01854,N,11042.38825,W,12.160,109.98,120120,,,A*40
$GPRMC,195206.20,A,3203.01825,N,11042.38752,W,12.131,111.08,120120,,,A*4F
$GPRMC,195206.40,A,3203.01793,N,11042.38682,W,12.006,112.71,120120,,,A*4F
$GPRMC,195206.60,A,3203.01758,N,11042.38617,W,11.741,114.88,120120,,,A*41
$GPRMC,195206.80,A,3203.01720,N,11042.38555,W,11.560,117.40,120120,,,A*43
