$GPRMC,123456.400,A,4559.4100,N,12269.1200,W,086.98,291.81,091208,,,S*66
$GPRMC,123456.600,A,4559.4120,N,12269.1300,W,087.48,291.30,091208,,,S*61
$GPRMC,123456.800,A,4559.4170,N,12269.1400,W,087.86,291.03,091208,,,S*6F
$GPRMC,123457.000,A,4559.4180,N,12269.1400,W,088.84,290.97,091208,,,S*68
$GPRMC,123457.200,A,4559.4240,N,12269.1600,W,089.45,291.11,091208,,,S*64
$GPRMC,123457.400,A,4559.4260,N,12269.1700,W,090.05,291.22,091208,,,S*6D
$GPRMC,123457.600,A,4559.4260,N,12269.1700,W,090.41,291.34,091208,,,S*68
$GPRMC,123457.800,A,4559.4310,N,12269.1800,W,091.00,291.44,091208,,,S*6C
$GPRMC,123458.000,A,4559.4320,N,12269.2000,W,091.35,291.18,091208,,,S*6C
$GPRMC,123458.200,A,4559.4380,N,12269.2000,W,092.06,291.33,091208,,,S*6E
$GPRMC,123458.400,A,4559.4390,N,12269.2100,W,092.93,291.65,091208,,,S*67
$GPRMC,123458.600,A,4559.4390,N,12269.2200,W,093.39,291.33,091208,,,S*64
$GPRMC,123458.800,A,4559.4450,N,12269.2400,W,093.90,291.46,091208,,,S*66
$GPRMC,123459.000,A,4559.4460,N,12269.2500,W,094.25,291.41,091208,,,S*63
$GPRMC,123459.200,A,4559.4460,N,12269.2500,W,094.78,291.65,091208,,,S*6F
$GPRMC,123459.400,A,4559.4520,N,12269.2600,W,095.35,291.65,091208,,,S*67
$GPRMC,123459.600,A,4559.4540,N,12269.2800,W,096.10,291.61,091208,,,S*6D
$GPRMC,123459.800,A,4559.4590,N,12269.2800,W,096.64,291.68,091208,,,S*64
$GPRMC,123460.000,A,4559.4600,N,12269.2900,W,096.97,291.80,091208,,,S*67
$GPRMC,123460.200,A,4559.4600,N,12269.3100,W,097.57,291.64,091208,,,S*6B
$GPRMC,123460.400,A,4559.4650,N,12269.3200,W,098.14,291.75,091208,,,S*63
$GPRMC,123460.600,A,4559.4670,N,12269.3300,W,098.64,291.94,091208,,,S*6A
$GPRMC,123460.800,A,4559.4730,N,12269.3300,W,099.18,292.67,091208,,,S*64
$GPRMC,123461.000,A,4559.4740,N,12269.3500,W,099.59,293.07,091208,,,S*6E
$GPRMC,123461.200,A,4559.4800,N,12269.3600,W,100.10,293.29,091208,,,S*64
$GPRMC,123461.400,A,4559.4810,N,12269.3600,W,100.38,293.07,091208,,,S*65
$GPRMC,123461.600,A,4559.4860,N,12269.3700,W,100.81,292.76,091208,,,S*64
$GPRMC,123461.800,A,4559.4880,N,12269.3900,W,101.60,292.97,091208,,,S*6B
$GPRMC,123462.000,A,4559.4930,N,12269.4000,W,102.01,292.78,091208,,,S*61
$GPRMC,123462.200,A,4559.4940,N,12269.4200,W,102.16,292.20,091208,,,S*6D
$GPRMC,123462.400,A,4559.4950,N,12269.4200,W,102.81,292.37,091208,,,S*62
$GPRMC,123462.600,A,4559.5010,N,12269.4300,W,103.24,292.89,091208,,,S*66
$GPRMC,123462.800,A,4559.5020,N,12269.4400,W,103.60,293.30,091208,,,S*6F
$GPRMC,123463.000,A,4559.5070,N,12269.4600,W,103.77,293.60,091208,,,S*62
$GPRMC,123463.200,A,4559.5090,N,12269.4700,W,104.07,293.25,091208,,,S*6E
$GPRMC,123463.400,A,4559.5140,N,12269.4700,W,104.66,293.00,091208,,,S*64
$GPRMC,123463.600,A,4559.5160,N,12269.4800,W,104.86,292.58,091208,,,S*69
$GPRMC,123463.800,A,4559.5210,N,12269.5000,W,105.34,292.57,091208,,,S*6D
$GPRMC,123464.000,A,4559.5230,N,12269.5100,W,105.76,292.35,091208,,,S*63
$GPRMC,123464.200,A,4559.5280,N,12269.5300,W,106.27,292.21,091208,,,S*6A
$GPRMC,123464.400,A,4559.5300,N,12269.5300,W,106.72,292.07,091208,,,S*61
$GPRMC,123464.600,A,4559.5350,N,12269.5400,W,106.95,292.11,091208,,,S*6F
$GPRMC,123464.800,A,4559.5370,N,12269.5500,W,106.91,291.93,091208,,,S*6F
$GPRMC,123465.000,A,4559.5370,N,12269.5600,W,107.21,291.81,091208,,,S*6C
$GPRMC,123465.200,A,4559.5420,N,12269.5800,W,107.56,291.76,091208,,,S*6A
$GPRMC,123465.400,A,4559.5440,N,12269.5900,W,107.81,291.25,091208,,,S*67
$GPRMC,123465.600,A,4559.5500,N,12269.6100,W,108.10,291.16,091208,,,S*6C
$GPRMC,123465.800,A,4559.5510,N,12269.6100,W,108.47,291.50,091208,,,S*63
$GPRMC,123466.000,A,4559.5560,N,12269.6200,W,108.59,291.28,091208,,,S*6C
$GPRMC,123466.200,A,4559.5580,N,12269.6300,W,108.93,291.19,091208,,,S*65
$GPRMC,123466.400,A,4559.5630,N,12269.6500,W,109.03,291.17,091208,,,S*6B
$GPRMC,123466.600,A,4559.5650,N,12269.6600,W,108.70,291.00,091208,,,S*6F
$GPRMC,123466.800,A,4559.5650,N,12269.6700,W,109.07,291.09,091208,,,S*68
$GPRMC,123467.000,A,4559.5700,N,12269.6900,W,109.14,291.06,091208,,,S*66
$GPRMC,123467.200,A,4559.5710,N,12269.7000,W,109.46,291.27,091208,,,S*69
$GPRMC,123467.400,A,4559.5770,N,12269.7100,W,109.60,291.24,091208,,,S*6F
$GPRMC,123467.600,A,4559.5790,N,12269.7100,W,109.82,290.93,091208,,,S*62
$GPRMC,123467.800,A,4559.5840,N,12269.7200,W,110.43,290.46,091208,,,S*60
$GPRMC,123468.000,A,4559.5860,N,12269.7400,W,110.18,290.56,091208,,,S*6C
$GPRMC,123468.200,A,4559.5910,N,12269.7500,W,110.21,291.10,091208,,,S*60
$GPRMC,123468.400,A,4559.5920,N,12269.7700,W,110.02,290.72,091208,,,S*63
$GPRMC,123468.600,A,4559.5970,N,12269.7800,W,110.11,290.76,091208,,,S*6D
$GPRMC,123468.800,A,4559.5990,N,12269.7900,W,110.22,290.60,091208,,,S*6B
$GPRMC,123469.000,A,4559.6040,N,12269.7900,W,110.17,290.65,091208,,,S*66
$GPRMC,123469.200,A,4559.6060,N,12269.8100,W,110.34,290.61,091208,,,S*64
$GPRMC,123469.400,A,4559.6060,N,12269.8200,W,110.30,290.68,091208,,,S*6C
$GPRMC,123469.600,A,4559.6120,N,12269.8400,W,110.48,290.64,091208,,,S*6E
$GPRMC,123469.800,A,4559.6130,N,12269.8500,W,110.43,290.62,091208,,,S*6D
$GPRMC,123470.000,A,4559.6190,N,12269.8600,W,110.41,290.46,091208,,,S*60
$GPRMC,123470.200,A,4559.6210,N,12269.8800,W,110.58,290.64,091208,,,S*6F
$GPRMC,123470.400,A,4559.6260,N,12269.8800,W,110.36,290.51,091208,,,S*60
$GPRMC,123470.600,A,4559.6280,N,12269.8900,W,110.36,290.53,091208,,,S*6F
$GPRMC,123470.800,A,4559.6320,N,12269.9000,W,110.78,290.43,091208,,,S*69
$GPRMC,123471.000,A,4559.6340,N,12269.9200,W,110.68,290.61,091208,,,S*65
$GPRMC,123471.200,A,4559.6390,N,12269.9300,W,110.70,290.85,091208,,,S*68
$GPRMC,123471.400,A,4559.6410,N,12269.9400,W,110.62,291.03,091208,,,S*6A
$GPRMC,123471.600,A,4559.6410,N,12269.9600,W,110.78,290.64,091208,,,S*61
$GPRMC,123471.800,A,4559.6460,N,12269.9600,W,110.81,290.59,091208,,,S*60
$GPRMC,123472.000,A,4559.6470,N,12269.9700,W,110.87,290.51,091208,,,S*65
$GPRMC,123472.200,A,4559.6530,N,12269.9800,W,110.89,290.17,091208,,,S*61
$GPRMC,123472.400,A,4559.6550,N,12270.0000,W,110.82,289.89,091208,,,S*6C
$GPRMC,123472.600,A,4559.6600,N,12270.0100,W,111.14,290.01,091208,,,S*6F
$GPRMC,123472.800,A,4559.6610,N,12270.0300,W,110.96,290.07,091208,,,S*6F
$GPRMC,123473.000,A,4559.6670,N,12270.0400,W,111.30,290.28,091208,,,S*67
$GPRMC,123473.200,A,4559.6680,N,12270.0500,W,111.42,290.17,091208,,,S*62
$GPRMC,123473.400,A,4559.6680,N,12270.0700,W,111.41,290.34,091208,,,S*64
$GPRMC,123473.600,A,4559.6740,N,12270.0700,W,111.44,290.51,091208,,,S*6D
$GPRMC,123473.800,A,4559.6750,N,12270.0800,W,111.64,290.52,091208,,,S*6C
$GPRMC,123474.000,A,4559.6800,N,12270.0900,W,111.33,290.28,091208,,,S*67
$GPRMC,123474.200,A,4559.6820,N,12270.1100,W,110.11,290.41,091208,,,S*60
$GPRMC,123474.400,A,4559.6870,N,12270.1200,W,106.98,290.68,091208,,,S*6D
$GPRMC,123474.600,A,4559.6890,N,12270.1300,W,103.25,290.74,091208,,,S*6E
$GPRMC,123474.800,A,4559.6890,N,12270.1500,W,100.28,291.31,091208,,,S*68
$GPRMC,123475.000,A,4559.6940,N,12270.1500,W,097.01,291.53,091208,,,S*6D
$GPRMC,123475.200,A,4559.6950,N,12270.1600,W,093.65,291.60,091208,,,S*6B
$GPRMC,123475.400,A,4559.7010,N,12270.1700,W,090.27,291.84,091208,,,S*6F
$GPRMC,123475.600,A,4559.7030,N,12270.1700,W,086.90,291.98,091208,,,S*69
$GPRMC,123475.800,A,4559.7030,N,12270.1900,W,083.68,292.01,091208,,,S*68
$GPRMC,123476.000,A,4559.7080,N,12270.2000,W,080.85,291.74,091208,,,S*63
$GPRMC,123476.200,A,4559.7090,N,12270.2000,W,078.30,291.52,091208,,,S*6D
$GPRMC,123476.400,A,4559.7090,N,12270.2100,W,075.50,290.99,091208,,,S*67
$GPRMC,123476.600,A,4559.7150,N,12270.2300,W,072.24,291.53,091208,,,S*69
$GPRMC,123476.800,A,4559.7160,N,12270.2300,W,068.84,292.26,091208,,,S*64
$GPRMC,123477.000,A,4559.7160,N,12270.2400,W,065.79,293.69,091208,,,S*6F
$GPRMC,123477.200,A,4559.7210,N,12270.2500,W,063.95,295.61,091208,,,S*62
$GPRMC,123477.400,A,4559.7220,N,12270.2500,W,062.38,297.35,091208,,,S*62
$GPRMC,123477.600,A,4559.7220,N,12270.2500,W,061.61,300.40,091208,,,S*62
$GPRMC,123477.800,A,4559.7270,N,12270.2500,W,061.10,302.96,091208,,,S*66
$GPRMC,123478.000,A,4559.7290,N,12270.2700,W,060.52,306.07,091208,,,S*66
$GPRMC,123478.200,A,4559.7350,N,12270.2800,W,060.22,310.28,091208,,,S*6B
$GPRMC,123478.400,A,4559.7360,N,12270.2800,W,060.04,314.78,091208,,,S*6B
$GPRMC,123478.600,A,4559.7420,N,12270.2800,W,060.27,319.74,091208,,,S*6A
$GPRMC,123478.800,A,4559.7480,N,12270.2800,W,060.83,324.22,091208,,,S*6D
$GPRMC,123479.000,A,4559.7500,N,12270.2900,W,061.31,328.97,091208,,,S*66
$GPRMC,123479.200,A,4559.7550,N,12270.3100,W,061.59,333.49,091208,,,S*6F
$GPRMC,123479.400,A,4559.7620,N,12270.3100,W,062.29,337.77,091208,,,S*60
$GPRMC,123479.600,A,4559.7640,N,12270.3100,W,063.07,340.84,091208,,,S*65
$GPRMC,123479.800,A,4559.7690,N,12270.3100,W,063.92,344.19,091208,,,S*6A
$GPRMC,123480.000,A,4559.7760,N,12270.3100,W,064.83,347.49,091208,,,S*6B
$GPRMC,123480.200,A,4559.7830,N,12270.3100,W,065.23,350.71,091208,,,S*65
$GPRMC,123480.400,A,4559.7840,N,12270.3100,W,066.19,353.05,091208,,,S*6E
$GPRMC,123480.600,A,4559.7900,N,12270.3100,W,067.19,355.53,091208,,,S*6D
$GPRMC,123480.800,A,4559.7970,N,12270.3100,W,067.13,359.27,091208,,,S*61
$GPRMC,123481.000,A,4559.8040,N,12270.3100,W,067.56,004.26,091208,,,S*66
$GPRMC,123481.200,A,4559.8100,N,12270.3100,W,067.29,007.90,091208,,,S*67
$GPRMC,123481.400,A,4559.8120,N,12270.3100,W,067.54,012.92,091208,,,S*6F
$GPRMC,123481.600,A,4559.8170,N,12270.3100,W,067.82,016.67,091208,,,S*6D
$GPRMC,123481.800,A,4559.8240,N,12270.3100,W,068.48,020.83,091208,,,S*65
$GPRMC,123482.000,A,4559.8260,N,12270.3100,W,069.17,025.30,091208,,,S*6A
$GPRMC,123482.200,A,4559.8310,N,12270.2900,W,069.63,028.66,091208,,,S*6A
$GPRMC,123482.400,A,4559.8380,N,12270.2800,W,070.91,032.09,091208,,,S*63
$GPRMC,123482.600,A,4559.8450,N,12270.2800,W,072.14,034.97,091208,,,S*65
$GPRMC,123482.800,A,4559.8460,N,12270.2800,W,071.51,038.56,091208,,,S*6B
$GPRMC,123483.000,A,4559.8510,N,12270.2800,W,071.80,041.92,091208,,,S*6E
$GPRMC,123483.200,A,4559.8530,N,12270.2800,W,071.29,043.86,091208,,,S*6A
$GPRMC,123483.400,A,4559.8590,N,12270.2700,W,069.17,046.33,091208,,,S*66
$GPRMC,123483.600,A,4559.8600,N,12270.2500,W,067.76,050.09,091208,,,S*6B
$GPRMC,123483.800,A,4559.8660,N,12270.2500,W,066.06,052.75,091208,,,S*6C
$GPRMC,123484.000,A,4559.8670,N,12270.2500,W,064.97,055.92,091208,,,S*66
$GPRMC,123484.200,A,4559.8670,N,12270.2400,W,064.61,060.04,091208,,,S*65
$GPRMC,123484.400,A,4559.8730,N,12270.2300,W,063.67,064.09,091208,,,S*69
$GPRMC,123484.600,A,4559.8740,N,12270.2300,W,063.16,068.76,091208,,,S*6E
$GPRMC,123484.800,A,4559.8740,N,12270.2300,W,063.23,073.58,091208,,,S*60
$GPRMC,123485.000,A,4559.8740,N,12270.2100,W,063.61,078.31,091208,,,S*69
$GPRMC,123485.200,A,4559.8740,N,12270.2000,W,064.07,082.55,091208,,,S*6A
$GPRMC,123485.400,A,4559.8740,N,12270.2000,W,064.36,086.76,091208,,,S*6B
$GPRMC,123485.600,A,4559.8740,N,12270.2000,W,064.52,091.92,091208,,,S*67
$GPRMC,123485.800,A,4559.8740,N,12270.1900,W,064.75,096.73,091208,,,S*6E
$GPRMC,123486.000,A,4559.8740,N,12270.1700,W,065.01,101.12,091208,,,S*61
$GPRMC,123486.200,A,4559.8690,N,12270.1700,W,065.53,104.93,091208,,,S*64
$GPRMC,123486.400,A,4559.8680,N,12270.1700,W,065.03,109.31,091208,,,S*63
$GPRMC,123486.600,A,4559.8630,N,12270.1600,W,065.29,114.03,091208,,,S*6E
$GPRMC,123486.800,A,4559.8610,N,12270.1400,W,065.32,118.92,091208,,,S*6E
$GPRMC,123487.000,A,4559.8610,N,12270.1400,W,065.40,124.36,091208,,,S*63
$GPRMC,123487.200,A,4559.8560,N,12270.1400,W,065.82,128.55,091208,,,S*62
$GPRMC,123487.400,A,4559.8490,N,12270.1300,W,066.15,132.85,091208,,,S*66
$GPRMC,123487.600,A,4559.8470,N,12270.1200,W,066.38,137.38,091208,,,S*67
$GPRMC,123487.800,A,4559.8420,N,12270.1200,W,066.68,141.95,091208,,,S*6F
$GPRMC,123488.000,A,4559.8350,N,12270.1200,W,067.20,145.90,091208,,,S*64
$GPRMC,123488.200,A,4559.8340,N,12270.1200,W,067.82,149.01,091208,,,S*6B
$GPRMC,123488.400,A,4559.8280,N,12270.1200,W,068.41,149.81,091208,,,S*68
$GPRMC,123488.600,A,4559.8210,N,12270.1200,W,068.35,148.93,091208,,,S*62
$GPRMC,123488.800,A,4559.8200,N,12270.1000,W,066.24,146.88,091208,,,S*65
$GPRMC,123489.000,A,4559.8140,N,12270.0900,W,064.64,144.41,091208,,,S*62
$GPRMC,123489.200,A,4559.8080,N,12270.0900,W,063.49,141.24,091208,,,S*63
$GPRMC,123489.400,A,4559.8070,N,12270.0900,W,062.22,138.05,091208,,,S*6B
$GPRMC,123489.600,A,4559.8010,N,12270.0900,W,061.42,134.28,091208,,,S*69
$GPRMC,123489.800,A,4559.8000,N,12270.0900,W,061.01,129.88,091208,,,S*67
$GPRMC,123490.000,A,4559.8000,N,12270.0800,W,060.40,125.47,091208,,,S*6D
$GPRMC,123490.200,A,4559.8000,N,12270.0600,W,059.19,120.55,091208,,,S*61
$GPRMC,123490.400,A,4559.7940,N,12270.0600,W,058.62,114.77,091208,,,S*6F
$GPRMC,123490.600,A,4559.7930,N,12270.0600,W,058.22,109.16,091208,,,S*65
$GPRMC,123490.800,A,4559.7930,N,12270.0500,W,058.24,104.14,091208,,,S*61
$GPRMC,123491.000,A,4559.7930,N,12270.0300,W,058.70,098.71,091208,,,S*68
$GPRMC,123491.200,A,4559.7930,N,12270.0300,W,058.76,094.18,091208,,,S*6F
$GPRMC,123491.400,A,4559.7930,N,12270.0300,W,059.16,089.82,091208,,,S*61
$GPRMC,123491.600,A,4559.7930,N,12270.0200,W,059.35,085.10,091208,,,S*64
$GPRMC,123491.800,A,4559.7980,N,12270.0100,W,059.40,080.17,091208,,,S*62
$GPRMC,123492.000,A,4559.8000,N,12270.0100,W,059.71,075.46,091208,,,S*6B
$GPRMC,123492.200,A,4559.8000,N,12270.0100,W,060.01,070.73,091208,,,S*67
$GPRMC,123492.400,A,4559.8000,N,12269.9900,W,060.24,065.59,091208,,,S*63
$GPRMC,123492.600,A,4559.8050,N,12269.9800,W,059.46,060.96,091208,,,S*6D
$GPRMC,123492.800,A,4559.8060,N,12269.9800,W,059.62,055.82,091208,,,S*65
$GPRMC,123493.000,A,4559.8110,N,12269.9800,W,059.86,051.28,091208,,,S*64
$GPRMC,123493.200,A,4559.8130,N,12269.9800,W,060.22,047.01,091208,,,S*6C
$GPRMC,123493.400,A,4559.8190,N,12269.9700,W,060.73,042.28,091208,,,S*65
$GPRMC,123493.600,A,4559.8260,N,12269.9500,W,061.12,037.30,091208,,,S*64
$GPRMC,123493.800,A,4559.8270,N,12269.9500,W,061.53,032.92,091208,,,S*63
$GPRMC,123494.000,A,4559.8320,N,12269.9500,W,062.14,028.91,091208,,,S*60
$GPRMC,123494.200,A,4559.8390,N,12269.9500,W,063.48,025.46,091208,,,S*66
$GPRMC,123494.400,A,4559.8400,N,12269.9500,W,063.91,021.77,091208,,,S*6C
$GPRMC,123494.600,A,4559.8460,N,12269.9500,W,064.17,017.84,091208,,,S*68
$GPRMC,123494.800,A,4559.8530,N,12269.9500,W,064.76,014.29,091208,,,S*61
$GPRMC,123495.000,A,4559.8590,N,12269.9500,W,065.41,011.07,091208,,,S*6E
$GPRMC,123495.200,A,4559.8600,N,12269.9500,W,066.57,008.20,091208,,,S*6F
$GPRMC,123495.400,A,4559.8660,N,12269.9500,W,067.09,005.28,091208,,,S*60
$GPRMC,123495.600,A,4559.8730,N,12269.9500,W,067.90,002.44,091208,,,S*6B
$GPRMC,123495.800,A,4559.8800,N,12269.9500,W,068.33,358.94,091208,,,S*6E
$GPRMC,123496.000,A,4559.8870,N,12269.9500,W,068.77,355.34,091208,,,S*65
$GPRMC,123496.200,A,4559.8880,N,12269.9500,W,069.57,351.95,091208,,,S*64
$GPRMC,123496.400,A,4559.8930,N,12269.9500,W,070.22,349.13,091208,,,S*65
$GPRMC,123496.600,A,4559.9000,N,12269.9500,W,071.38,346.61,091208,,,S*6C
$GPRMC,123496.800,A,4559.9070,N,12269.9500,W,071.82,345.23,091208,,,S*61
$GPRMC,123497.000,A,4559.9140,N,12269.9500,W,072.72,345.54,091208,,,S*66
$GPRMC,123497.200,A,4559.9210,N,12269.9500,W,073.43,347.25,091208,,,S*65
$GPRMC,123497.400,A,4559.9210,N,12269.9500,W,073.40,348.67,091208,,,S*69
$GPRMC,123497.600,A,4559.9270,N,12269.9500,W,071.12,349.09,091208,,,S*61
$GPRMC,123497.800,A,4559.9340,N,12269.9500,W,068.35,349.52,091208,,,S*6E
$GPRMC,123498.000,A,4559.9410,N,12269.9500,W,065.16,350.00,091208,,,S*68
$GPRMC,123498.200,A,4559.9420,N,12269.9500,W,061.58,350.84,091208,,,S*6B
$GPRMC,123498.400,A,4559.9470,N,12269.9500,W,057.84,351.27,091208,,,S*64
$GPRMC,123498.600,A,4559.9540,N,12269.9500,W,055.05,352.02,091208,,,S*6B
$GPRMC,123498.800,A,4559.9550,N,12269.9500,W,052.82,353.18,091208,,,S*66
$GPRMC,123499.000,A,4559.9610,N,12269.9500,W,050.97,354.87,091208,,,S*6F
$GPRMC,123499.200,A,4559.9620,N,12269.9500,W,049.88,358.73,091208,,,S*6F
$GPRMC,123499.400,A,4559.9670,N,12269.9500,W,049.07,004.46,091208,,,S*67
$GPRMC,123499.600,A,4559.9690,N,12269.9500,W,047.75,010.82,091208,,,S*6D
$GPRMC,123499.800,A,4559.9740,N,12269.9500,W,046.93,016.69,091208,,,S*65
$GPRMC,123500.000,A,4559.9810,N,12269.9500,W,046.77,022.41,091208,,,S*61
$GPRMC,123500.200,A,4559.9820,N,12269.9500,W,047.69,028.45,091208,,,S*60
$GPRMC,123500.400,A,4559.9820,N,12269.9500,W,048.64,033.66,091208,,,S*6F
$GPRMC,123500.600,A,4559.9870,N,12269.9500,W,049.02,039.67,091208,,,S*62
$GPRMC,123500.800,A,4559.9880,N,12269.9500,W,048.78,045.03,091208,,,S*66
$GPRMC,123501.000,A,4559.9940,N,12269.9500,W,049.40,052.50,091208,,,S*68
$GPRMC,123501.200,A,4559.9950,N,12269.9400,W,049.88,058.20,091208,,,S*63
$GPRMC,123501.400,A,4559.9950,N,12269.9300,W,050.75,064.77,091208,,,S*65
$GPRMC,123501.600,A,4559.9950,N,12269.9300,W,051.12,071.70,091208,,,S*64
$GPRMC,123501.800,A,4559.9950,N,12269.9300,W,051.31,077.90,091208,,,S*63
$GPRMC,123502.000,A,4559.9950,N,12269.9100,W,051.67,084.12,091208,,,S*6F
$GPRMC,123502.200,A,4559.9950,N,12269.9000,W,052.12,090.13,091208,,,S*69
$GPRMC,123502.400,A,4559.9950,N,12269.9000,W,053.47,095.00,091208,,,S*69
$GPRMC,123502.600,A,4559.9950,N,12269.9000,W,054.69,098.79,091208,,,S*63
$GPRMC,123502.800,A,4559.9950,N,12269.9000,W,055.56,102.46,091208,,,S*6E
$GPRMC,123503.000,A,4559.9950,N,12269.8900,W,056.34,105.70,091208,,,S*6A
$GPRMC,123503.200,A,4559.9900,N,12269.8700,W,056.78,109.86,091208,,,S*6E
$GPRMC,123503.400,A,4559.9880,N,12269.8700,W,057.48,112.47,091208,,,S*64
$GPRMC,123503.600,A,4559.9880,N,12269.8700,W,059.10,114.06,091208,,,S*66
$GPRMC,123503.800,A,4559.9830,N,12269.8600,W,060.05,115.33,091208,,,S*6B
$GPRMC,123504.000,A,4559.9810,N,12269.8400,W,060.94,115.82,091208,,,S*66
$GPRMC,123504.200,A,4559.9810,N,12269.8400,W,061.77,116.10,091208,,,S*60
$GPRMC,123504.400,A,4559.9760,N,12269.8400,W,062.81,115.84,091208,,,S*6A
$GPRMC,123504.600,A,4559.9740,N,12269.8300,W,063.87,115.45,091208,,,S*67
$GPRMC,123504.800,A,4559.9740,N,12269.8200,W,064.51,115.05,091208,,,S*60
$GPRMC,123505.000,A,4559.9690,N,12269.8200,W,065.43,114.77,091208,,,S*63
$GPRMC,123505.200,A,4559.9680,N,12269.8200,W,066.36,114.15,091208,,,S*65
$GPRMC,123505.400,A,4559.9680,N,12269.8000,W,067.25,113.49,091208,,,S*6C
$GPRMC,123505.600,A,4559.9620,N,12269.7900,W,068.17,112.96,091208,,,S*6F
$GPRMC,123505.800,A,4559.9610,N,12269.7900,W,068.85,111.69,091208,,,S*6A
$GPRMC,123506.000,A,4559.9610,N,12269.7900,W,069.61,110.74,091208,,,S*67
$GPRMC,123506.200,A,4559.9610,N,12269.7800,W,070.52,109.88,091208,,,S*67
$GPRMC,123506.400,A,4559.9550,N,12269.7600,W,071.50,108.61,091208,,,S*6D
$GPRMC,123506.600,A,4559.9540,N,12269.7600,W,072.08,107.03,091208,,,S*6B
$GPRMC,123506.800,A,4559.9540,N,12269.7600,W,073.02,104.72,091208,,,S*6B
$GPRMC,123507.000,A,4559.9540,N,12269.7500,W,073.71,102.75,091208,,,S*64
$GPRMC,123507.200,A,4559.9540,N,12269.7300,W,074.37,101.41,091208,,,S*61
$GPRMC,123507.400,A,4559.9540,N,12269.7300,W,075.25,099.83,091208,,,S*6B
$GPRMC,123507.600,A,4559.9480,N,12269.7200,W,076.02,098.16,091208,,,S*6E
$GPRMC,123507.800,A,4559.9470,N,12269.7100,W,076.41,096.91,091208,,,S*6A
$GPRMC,123508.000,A,4559.9470,N,12269.7100,W,077.27,095.77,091208,,,S*67
$GPRMC,123508.200,A,4559.9470,N,12269.6900,W,078.09,095.16,091208,,,S*68
$GPRMC,123508.400,A,4559.9470,N,12269.6800,W,078.87,093.99,091208,,,S*68
$GPRMC,123508.600,A,4559.9470,N,12269.6800,W,079.69,093.69,091208,,,S*64
$GPRMC,123508.800,A,4559.9470,N,12269.6700,W,080.20,093.82,091208,,,S*6B
$GPRMC,123509.000,A,4559.9470,N,12269.6500,W,080.77,093.58,091208,,,S*65
$GPRMC,123509.200,A,4559.9470,N,12269.6500,W,081.30,093.74,091208,,,S*6B
$GPRMC,123509.400,A,4559.9470,N,12269.6400,W,082.23,094.54,091208,,,S*68
$GPRMC,123509.600,A,4559.9470,N,12269.6300,W,082.77,095.35,091208,,,S*6A
$GPRMC,123509.800,A,4559.9470,N,12269.6300,W,083.28,096.09,091208,,,S*63
$GPRMC,123510.000,A,4559.9470,N,12269.6100,W,084.14,097.21,091208,,,S*62
$GPRMC,123510.200,A,4559.9410,N,12269.6000,W,084.66,098.56,091208,,,S*6D
$GPRMC,123510.400,A,4559.9410,N,12269.6000,W,084.66,100.40,091208,,,S*6C
$GPRMC,123510.600,A,4559.9410,N,12269.5800,W,085.56,100.85,091208,,,S*6E
$GPRMC,123510.800,A,4559.9410,N,12269.5700,W,086.53,101.80,091208,,,S*6D
$GPRMC,123511.000,A,4559.9350,N,12269.5700,W,087.25,102.26,091208,,,S*68
$GPRMC,123511.200,A,4559.9340,N,12269.5500,W,087.16,103.29,091208,,,S*67
$GPRMC,123511.400,A,4559.9340,N,12269.5400,W,087.40,104.84,091208,,,S*63
$GPRMC,123511.600,A,4559.9280,N,12269.5400,W,088.10,106.92,091208,,,S*63
$GPRMC,123511.800,A,4559.9270,N,12269.5300,W,088.51,107.51,091208,,,S*6E
$GPRMC,123512.000,A,4559.9270,N,12269.5100,W,088.85,109.14,091208,,,S*61
$GPRMC,123512.200,A,4559.9210,N,12269.5100,W,089.59,110.87,091208,,,S*67
$GPRMC,123512.400,A,4559.9200,N,12269.5000,W,090.01,112.61,091208,,,S*6E
$GPRMC,123512.600,A,4559.9200,N,12269.4900,W,090.34,113.68,091208,,,S*6A
$GPRMC,123512.800,A,4559.9140,N,12269.4700,W,091.19,113.90,091208,,,S*64
$GPRMC,123513.000,A,4559.9120,N,12269.4600,W,091.81,114.84,091208,,,S*69
$GPRMC,123513.200,A,4559.9070,N,12269.4600,W,091.87,116.49,091208,,,S*6A
$GPRMC,123513.400,A,4559.9000,N,12269.4400,W,091.80,118.06,091208,,,S*6B
$GPRMC,123513.600,A,4559.9000,N,12269.4300,W,092.38,119.72,091208,,,S*6C
$GPRMC,123513.800,A,4559.8930,N,12269.4300,W,093.06,121.09,091208,,,S*62
$GPRMC,123514.000,A,4559.8920,N,12269.4100,W,093.56,121.94,091208,,,S*6F
$GPRMC,123514.200,A,4559.8860,N,12269.4000,W,094.00,123.28,091208,,,S*68
$GPRMC,123514.400,A,4559.8790,N,12269.4000,W,094.59,124.51,091208,,,S*6B
$GPRMC,123514.600,A,4559.8790,N,12269.4000,W,095.31,126.20,091208,,,S*62
$GPRMC,123514.800,A,4559.8720,N,12269.3900,W,095.64,127.43,091208,,,S*6D
$GPRMC,123515.000,A,4559.8660,N,12269.3800,W,095.99,128.53,091208,,,S*6C
$GPRMC,123515.200,A,4559.8640,N,12269.3800,W,096.45,129.83,091208,,,S*62
$GPRMC,123515.400,A,4559.8580,N,12269.3600,W,097.22,130.49,091208,,,S*6B
$GPRMC,123515.600,A,4559.8510,N,12269.3500,W,097.60,131.05,091208,,,S*6C
$GPRMC,123515.800,A,4559.8440,N,12269.3400,W,097.76,131.58,091208,,,S*68
$GPRMC,123516.000,A,4559.8430,N,12269.3200,W,098.24,132.18,091208,,,S*6D
$GPRMC,123516.200,A,4559.8370,N,12269.3200,W,098.70,132.76,091208,,,S*65
$GPRMC,123516.400,A,4559.8300,N,12269.3200,W,099.07,133.59,091208,,,S*69
$GPRMC,123516.600,A,4559.8240,N,12269.3100,W,099.39,134.26,091208,,,S*6F
$GPRMC,123516.800,A,4559.8170,N,12269.3000,W,100.16,134.98,091208,,,S*69
$GPRMC,123517.000,A,4559.8100,N,12269.3000,W,100.23,135.28,091208,,,S*6B
$GPRMC,123517.200,A,4559.8090,N,12269.2800,W,100.42,135.86,091208,,,S*6B
$GPRMC,123517.400,A,4559.8030,N,12269.2700,W,101.12,136.54,091208,,,S*60
$GPRMC,123517.600,A,4559.7970,N,12269.2700,W,101.53,136.94,091208,,,S*69
$GPRMC,123517.800,A,4559.7900,N,12269.2700,W,102.13,137.13,091208,,,S*69
$GPRMC,123518.000,A,4559.7830,N,12269.2500,W,102.45,137.47,091208,,,S*6C
$GPRMC,123518.200,A,4559.7760,N,12269.2400,W,102.68,137.84,091208,,,S*65
$GPRMC,123518.400,A,4559.7690,N,12269.2400,W,103.27,137.99,091208,,,S*6B
$GPRMC,123518.600,A,4559.7620,N,12269.2300,W,103.76,137.91,091208,,,S*69
$GPRMC,123518.800,A,4559.7550,N,12269.2100,W,104.00,138.21,091208,,,S*63
$GPRMC,123519.000,A,4559.7550,N,12269.2100,W,104.61,138.77,091208,,,S*6E
$GPRMC,123519.200,A,4559.7490,N,12269.2100,W,104.98,139.30,091208,,,S*65
$GPRMC,123519.400,A,4559.7420,N,12269.2000,W,105.22,139.37,091208,,,S*6E
$GPRMC,123519.600,A,4559.7350,N,12269.1900,W,105.36,139.88,091208,,,S*67
$GPRMC,123519.800,A,4559.7290,N,12269.1900,W,105.72,140.86,091208,,,S*64
$GPRMC,123520.000,A,4559.7220,N,12269.1700,W,106.11,141.73,091208,,,S*6E
$GPRMC,123520.200,A,4559.7150,N,12269.1600,W,106.55,142.55,091208,,,S*6E
$GPRMC,123520.400,A,4559.7030,N,12269.1600,W,106.95,142.67,091208,,,S*62
$GPRMC,123520.600,A,4559.6950,N,12269.1600,W,107.33,142.80,091208,,,S*6A
$GPRMC,123520.800,A,4559.6880,N,12269.1400,W,107.71,142.92,091208,,,S*6F
$GPRMC,123521.000,A,4559.6810,N,12269.1300,W,107.87,143.40,091208,,,S*6F
$GPRMC,123521.200,A,4559.6740,N,12269.1300,W,108.25,143.81,091208,,,S*6D
$GPRMC,123521.400,A,4559.6670,N,12269.1300,W,108.77,144.19,091208,,,S*68
$GPRMC,123521.600,A,4559.6600,N,12269.1200,W,109.16,144.38,091208,,,S*69
$GPRMC,123521.800,A,4559.6540,N,12269.1000,W,109.26,144.13,091208,,,S*68
$GPRMC,123522.000,A,4559.6470,N,12269.1000,W,109.85,143.84,091208,,,S*61
$GPRMC,123522.200,A,4559.6400,N,12269.1000,W,110.24,143.80,091208,,,S*63
$GPRMC,123522.400,A,4559.6330,N,12269.0900,W,110.30,143.76,091208,,,S*65
$GPRMC,123522.600,A,4559.6260,N,12269.0700,W,109.95,143.66,091208,,,S*6B
$GPRMC,123522.800,A,4559.6200,N,12269.0700,W,109.82,143.97,091208,,,S*6B
$GPRMC,123523.000,A,4559.6130,N,12269.0700,W,109.90,143.21,091208,,,S*6C
$GPRMC,123523.200,A,4559.6060,N,12269.0600,W,109.28,142.17,091208,,,S*6C
$GPRMC,123523.400,A,4559.5990,N,12269.0500,W,108.52,142.78,091208,,,S*69
$GPRMC,123523.600,A,4559.5920,N,12269.0500,W,108.08,142.61,091208,,,S*67
$GPRMC,123523.800,A,4559.5860,N,12269.0300,W,105.19,141.92,091208,,,S*68
$GPRMC,123524.000,A,4559.5790,N,12269.0200,W,101.67,141.76,091208,,,S*61
$GPRMC,123524.200,A,4559.5720,N,12269.0200,W,098.31,142.04,091208,,,S*6C
$GPRMC,123524.400,A,4559.5650,N,12269.0200,W,095.33,141.18,091208,,,S*6D
$GPRMC,123524.600,A,4559.5580,N,12269.0000,W,093.86,139.95,091208,,,S*61
$GPRMC,123524.800,A,4559.5570,N,12268.9900,W,092.23,138.05,091208,,,S*67
$GPRMC,123525.000,A,4559.5520,N,12268.9900,W,090.18,136.09,091208,,,S*63
$GPRMC,123525.200,A,4559.5450,N,12268.9900,W,088.31,133.58,091208,,,S*64
$GPRMC,123525.400,A,4559.5440,N,12268.9800,W,087.52,131.43,091208,,,S*60
$GPRMC,123525.600,A,4559.5380,N,12268.9700,W,087.18,128.26,091208,,,S*63
$GPRMC,123525.800,A,4559.5360,N,12268.9700,W,087.08,125.11,091208,,,S*6B
$GPRMC,123526.000,A,4559.5310,N,12268.9500,W,087.36,122.73,091208,,,S*6B
$GPRMC,123526.200,A,4559.5290,N,12268.9400,W,087.47,119.20,091208,,,S*69
$GPRMC,123526.400,A,4559.5290,N,12268.9400,W,087.73,116.15,091208,,,S*61
$GPRMC,123526.600,A,4559.5230,N,12268.9300,W,088.56,113.43,091208,,,S*60
$GPRMC,123526.800,A,4559.5220,N,12268.9100,W,088.48,112.01,091208,,,S*65
$GPRMC,123527.000,A,4559.5170,N,12268.9100,W,086.96,110.65,091208,,,S*67
$GPRMC,123527.200,A,4559.5160,N,12268.9000,W,084.08,110.76,091208,,,S*62
$GPRMC,123527.400,A,4559.5160,N,12268.8900,W,081.60,112.15,091208,,,S*60
$GPRMC,123527.600,A,4559.5100,N,12268.8900,W,080.81,115.35,091208,,,S*6F
$GPRMC,123527.800,A,4559.5090,N,12268.8700,W,080.20,118.69,091208,,,S*68
$GPRMC,123528.000,A,4559.5030,N,12268.8600,W,079.50,121.73,091208,,,S*64
$GPRMC,123528.200,A,4559.5020,N,12268.8600,W,078.46,124.69,091208,,,S*6F
$GPRMC,123528.400,A,4559.4960,N,12268.8600,W,078.01,128.68,091208,,,S*6B
$GPRMC,123528.600,A,4559.4890,N,12268.8400,W,077.91,132.73,091208,,,S*62
$GPRMC,123528.800,A,4559.4880,N,12268.8300,W,077.98,136.57,091208,,,S*61
$GPRMC,123529.000,A,4559.4830,N,12268.8300,W,078.71,139.04,091208,,,S*62
$GPRMC,123529.200,A,4559.4760,N,12268.8300,W,079.21,141.86,091208,,,S*6B
$GPRMC,123529.400,A,4559.4690,N,12268.8300,W,079.30,144.90,091208,,,S*61
$GPRMC,123529.600,A,4559.4620,N,12268.8200,W,078.76,147.98,091208,,,S*61
$GPRMC,123529.800,A,4559.4620,N,12268.8000,W,077.53,150.82,091208,,,S*68
$GPRMC,123530.000,A,4559.4560,N,12268.8000,W,075.41,153.25,091208,,,S*60
$GPRMC,123530.200,A,4559.4490,N,12268.8000,W,073.15,155.56,091208,,,S*69
$GPRMC,123530.400,A,4559.4420,N,12268.8000,W,070.35,156.49,091208,,,S*68
$GPRMC,123530.600,A,4559.4410,N,12268.8000,W,067.39,156.77,091208,,,S*6E
$GPRMC,123530.800,A,4559.4350,N,12268.8000,W,064.27,156.44,091208,,,S*6F
$GPRMC,123531.000,A,4559.4280,N,12268.7900,W,061.58,157.42,091208,,,S*66
$GPRMC,123531.200,A,4559.4260,N,12268.7700,W,059.61,159.80,091208,,,S*65
$GPRMC,123531.400,A,4559.4210,N,12268.7700,W,057.13,163.10,091208,,,S*6F
$GPRMC,123531.600,A,4559.4200,N,12268.7700,W,054.65,166.60,091208,,,S*6C
$GPRMC,123531.800,A,4559.4150,N,12268.7700,W,053.90,171.88,091208,,,S*69
$GPRMC,123532.000,A,4559.4080,N,12268.7700,W,053.75,177.68,091208,,,S*6D
$GPRMC,123532.200,A,4559.4060,N,12268.7700,W,053.95,182.81,091208,,,S*62
$GPRMC,123532.400,A,4559.4010,N,12268.7700,W,054.15,187.98,091208,,,S*61
$GPRMC,123532.600,A,4559.3940,N,12268.7700,W,054.76,193.36,091208,,,S*6C
$GPRMC,123532.800,A,4559.3930,N,12268.7700,W,055.25,198.37,091208,,,S*68
$GPRMC,123533.000,A,4559.3870,N,12268.7900,W,055.22,203.39,091208,,,S*62
$GPRMC,123533.200,A,4559.3860,N,12268.8000,W,055.70,208.98,091208,,,S*60
$GPRMC,123533.400,A,4559.3800,N,12268.8000,W,056.59,214.22,091208,,,S*64
$GPRMC,123533.600,A,4559.3790,N,12268.8000,W,056.77,219.34,091208,,,S*66
$GPRMC,123533.800,A,4559.3730,N,12268.8000,W,057.06,224.09,091208,,,S*65
$GPRMC,123534.000,A,4559.3730,N,12268.8000,W,057.60,228.86,091208,,,S*61
$GPRMC,123534.200,A,4559.3730,N,12268.8000,W,058.48,233.54,091208,,,S*63
$GPRMC,123534.400,A,4559.3670,N,12268.8100,W,059.35,238.19,091208,,,S*68
$GPRMC,123534.600,A,4559.3660,N,12268.8300,W,059.88,242.50,091208,,,S*6F
$GPRMC,123534.800,A,4559.3660,N,12268.8300,W,060.43,245.43,091208,,,S*69
$GPRMC,123535.000,A,4559.3610,N,12268.8300,W,061.34,249.03,091208,,,S*6E
$GPRMC,123535.200,A,4559.3600,N,12268.8400,W,062.08,252.40,091208,,,S*6B
$GPRMC,123535.400,A,4559.3600,N,12268.8500,W,063.00,255.36,091208,,,S*63
$GPRMC,123535.600,A,4559.3600,N,12268.8500,W,063.92,256.89,091208,,,S*6D
$GPRMC,123535.800,A,4559.3600,N,12268.8500,W,064.67,259.59,091208,,,S*6C
$GPRMC,123536.000,A,4559.3600,N,12268.8700,W,065.15,262.63,091208,,,S*60
$GPRMC,123536.200,A,4559.3600,N,12268.8800,W,066.06,265.87,091208,,,S*61
$GPRMC,123536.400,A,4559.3600,N,12268.8800,W,066.99,269.06,091208,,,S*64
$GPRMC,123536.600,A,4559.3600,N,12268.9000,W,067.39,271.86,091208,,,S*65
$GPRMC,123536.800,A,4559.3600,N,12268.9100,W,068.06,274.28,091208,,,S*68
$GPRMC,123537.000,A,4559.3600,N,12268.9100,W,069.16,276.52,091208,,,S*6E
$GPRMC,123537.200,A,4559.3600,N,12268.9100,W,069.96,278.26,091208,,,S*69
$GPRMC,123537.400,A,4559.3600,N,12268.9200,W,070.89,279.78,091208,,,S*60
$GPRMC,123537.600,A,4559.3600,N,12268.9400,W,071.93,281.08,091208,,,S*6E
$GPRMC,123537.800,A,4559.3650,N,12268.9400,W,072.32,282.79,091208,,,S*68
$GPRMC,123538.000,A,4559.3670,N,12268.9500,W,073.03,283.94,091208,,,S*6D
$GPRMC,123538.200,A,4559.3670,N,12268.9700,W,074.02,284.78,091208,,,S*6E
$GPRMC,123538.400,A,4559.3670,N,12268.9700,W,075.04,286.46,091208,,,S*60
$GPRMC,123538.600,A,4559.3720,N,12268.9700,W,075.80,287.76,091208,,,S*68
$GPRMC,123538.800,A,4559.3730,N,12268.9800,W,076.58,288.64,091208,,,S*62
$GPRMC,123539.000,A,4559.3730,N,12268.9900,W,076.67,290.07,091208,,,S*6A
$GPRMC,123539.200,A,4559.3790,N,12268.9900,W,077.79,291.40,091208,,,S*6E
$GPRMC,123539.400,A,4559.3800,N,12269.0100,W,078.49,292.30,091208,,,S*66
$GPRMC,123539.600,A,4559.3800,N,12269.0200,W,079.28,292.83,091208,,,S*69
$GPRMC,123539.800,A,4559.3860,N,12269.0200,W,080.21,292.85,091208,,,S*68
$GPRMC,123540.000,A,4559.3870,N,12269.0300,W,080.77,292.84,091208,,,S*6C
$GPRMC,123540.200,A,4559.3870,N,12269.0500,W,081.30,292.36,091208,,,S*63
$GPRMC,123540.400,A,4559.3920,N,12269.0500,W,081.93,292.00,091208,,,S*6D
$GPRMC,123540.600,A,4559.3930,N,12269.0600,W,082.07,291.86,091208,,,S*6E
$GPRMC,123540.800,A,4559.3990,N,12269.0700,W,082.79,291.84,091208,,,S*60
$GPRMC,123541.000,A,4559.4000,N,12269.0700,W,083.91,292.02,091208,,,S*64
$GPRMC,123541.200,A,4559.4000,N,12269.0900,W,084.16,291.99,091208,,,S*61
$GPRMC,123541.400,A,4559.4060,N,12269.1000,W,084.80,292.27,091208,,,S*60
$GPRMC,123541.600,A,4559.4070,N,12269.1000,W,085.59,292.83,091208,,,S*68
$GPRMC,123541.800,A,4559.4120,N,12269.1100,W,087.27,293.01,091208,,,S*63
$GPRMC,123542.000,A,4559.4140,N,12269.1300,W,087.72,292.64,091208,,,S*6E
$GPRMC,123542.200,A,4559.4140,N,12269.1300,W,088.44,292.57,091208,,,S*66
$GPRMC,123542.400,A,4559.4190,N,12269.1400,W,088.96,291.88,091208,,,S*64
$GPRMC,123542.600,A,4559.4210,N,12269.1500,W,089.67,291.52,091208,,,S*64
$GPRMC,123542.800,A,4559.4270,N,12269.1500,W,089.88,291.69,091208,,,S*65
$GPRMC,123543.000,A,4559.4280,N,12269.1700,W,089.87,291.62,091208,,,S*65
$GPRMC,123543.200,A,4559.4280,N,12269.1800,W,090.31,291.53,091208,,,S*6F
$GPRMC,123543.400,A,4559.4340,N,12269.1800,W,090.96,291.53,091208,,,S*69
$GPRMC,123543.600,A,4559.4350,N,12269.2000,W,091.44,291.49,091208,,,S*64
$GPRMC,123543.800,A,4559.4350,N,12269.2100,W,091.91,291.50,091208,,,S*6B
$GPRMC,123544.000,A,4559.4410,N,12269.2100,W,092.43,291.48,091208,,,S*62
$GPRMC,123544.200,A,4559.4420,N,12269.2300,W,093.16,291.41,091208,,,S*69
$GPRMC,123544.400,A,4559.4480,N,12269.2400,W,093.74,291.55,091208,,,S*63
$GPRMC,123544.600,A,4559.4490,N,12269.2400,W,094.18,291.67,091208,,,S*6C
$GPRMC,123544.800,A,4559.4490,N,12269.2500,W,094.68,291.64,091208,,,S*67
$GPRMC,123545.000,A,4559.4550,N,12269.2600,W,095.20,291.68,091208,,,S*61
$GPRMC,123545.200,A,4559.4560,N,12269.2800,W,095.68,291.63,091208,,,S*69
$GPRMC,123545.400,A,4559.4620,N,12269.2900,W,096.12,291.68,091208,,,S*6C
$GPRMC,123545.600,A,4559.4630,N,12269.2900,W,096.48,291.64,091208,,,S*6C
$GPRMC,123545.800,A,4559.4630,N,12269.3100,W,097.27,291.63,091208,,,S*64
$GPRMC,123546.000,A,4559.4680,N,12269.3200,W,097.99,291.95,091208,,,S*6B
$GPRMC,123546.200,A,4559.4700,N,12269.3300,W,098.29,291.88,091208,,,S*69
$GPRMC,123546.400,A,4559.4760,N,12269.3500,W,098.67,291.61,091208,,,S*62
$GPRMC,123546.600,A,4559.4770,N,12269.3500,W,099.24,291.82,091208,,,S*6A
$GPRMC,123546.800,A,4559.4770,N,12269.3600,W,099.94,291.70,091208,,,S*61
$GPRMC,123547.000,A,4559.4830,N,12269.3700,W,100.21,291.98,091208,,,S*6B
$GPRMC,123547.200,A,4559.4840,N,12269.3700,W,100.67,291.88,091208,,,S*6D
$GPRMC,123547.400,A,4559.4900,N,12269.3900,W,101.19,291.62,091208,,,S*6C
$GPRMC,123547.600,A,4559.4910,N,12269.4000,W,101.66,291.44,091208,,,S*6D
$GPRMC,123547.800,A,4559.4960,N,12269.4100,W,102.26,291.42,091208,,,S*64
$GPRMC,123548.000,A,4559.4970,N,12269.4300,W,102.67,291.16,091208,,,S*64
$GPRMC,123548.200,A,4559.4970,N,12269.4300,W,103.01,291.41,091208,,,S*65
$GPRMC,123548.400,A,4559.5030,N,12269.4400,W,103.55,292.21,091208,,,S*6C
$GPRMC,123548.600,A,4559.5040,N,12269.4600,W,103.83,292.99,091208,,,S*63
$GPRMC,123548.800,A,4559.5100,N,12269.4700,W,104.16,293.07,091208,,,S*64
$GPRMC,123549.000,A,4559.5100,N,12269.4900,W,104.62,292.65,091208,,,S*65
$GPRMC,123549.200,A,4559.5170,N,12269.4900,W,105.07,292.09,091208,,,S*68
$GPRMC,123549.400,A,4559.5180,N,12269.5000,W,105.29,291.70,091208,,,S*68
$GPRMC,123549.600,A,4559.5230,N,12269.5100,W,105.62,291.65,091208,,,S*68
$GPRMC,123549.800,A,4559.5250,N,12269.5300,W,105.91,291.58,091208,,,S*60
$GPRMC,123550.000,A,4559.5300,N,12269.5400,W,106.23,291.74,091208,,,S*67
$GPRMC,123550.200,A,4559.5310,N,12269.5400,W,106.54,291.75,091208,,,S*65
$GPRMC,123550.400,A,4559.5360,N,12269.5500,W,106.74,291.61,091208,,,S*62
$GPRMC,123550.600,A,4559.5380,N,12269.5700,W,107.08,291.86,091208,,,S*6F
$GPRMC,123550.800,A,4559.5440,N,12269.5800,W,107.43,291.93,091208,,,S*6E
$GPRMC,123551.000,A,4559.5460,N,12269.5900,W,107.73,291.94,091208,,,S*60
$GPRMC,123551.200,A,4559.5460,N,12269.6100,W,107.89,291.84,091208,,,S*6D
$GPRMC,123551.400,A,4559.5510,N,12269.6200,W,108.28,291.59,091208,,,S*6A
$GPRMC,123551.600,A,4559.5530,N,12269.6200,W,108.48,291.50,091208,,,S*65
$GPRMC,123551.800,A,4559.5580,N,12269.6300,W,108.72,291.61,091208,,,S*6A
$GPRMC,123552.000,A,4559.5600,N,12269.6500,W,108.98,291.65,091208,,,S*6C
$GPRMC,123552.200,A,4559.5650,N,12269.6600,W,109.19,291.79,091208,,,S*6D
$GPRMC,123552.400,A,4559.5660,N,12269.6700,W,109.37,291.78,091208,,,S*64
$GPRMC,123552.600,A,4559.5720,N,12269.6900,W,109.38,291.70,091208,,,S*6A
$GPRMC,123552.800,A,4559.5730,N,12269.7000,W,109.80,291.75,091208,,,S*6B
$GPRMC,123553.000,A,4559.5780,N,12269.7000,W,109.82,291.60,091208,,,S*6F
$GPRMC,123553.200,A,4559.5800,N,12269.7100,W,110.16,291.49,091208,,,S*65
$GPRMC,123553.400,A,4559.5860,N,12269.7300,W,110.13,291.52,091208,,,S*68
$GPRMC,123553.600,A,4559.5870,N,12269.7400,W,110.52,291.41,091208,,,S*6B
$GPRMC,123553.800,A,4559.5870,N,12269.7600,W,110.88,291.36,091208,,,S*60
$GPRMC,123554.000,A,4559.5920,N,12269.7700,W,110.84,291.57,091208,,,S*61
$GPRMC,123554.200,A,4559.5940,N,12269.7800,W,111.02,291.71,091208,,,S*61
$GPRMC,123554.400,A,4559.5990,N,12269.8000,W,111.24,291.81,091208,,,S*66
$GPRMC,123554.600,A,4559.6010,N,12269.8100,W,111.41,291.63,091208,,,S*68
$GPRMC,123554.800,A,4559.6060,N,12269.8100,W,111.46,291.47,091208,,,S*60
$GPRMC,123555.000,A,4559.6070,N,12269.8200,W,111.76,291.35,091208,,,S*6D
$GPRMC,123555.200,A,4559.6120,N,12269.8400,W,111.99,291.26,091208,,,S*6E
$GPRMC,123555.400,A,4559.6140,N,12269.8500,W,112.01,291.16,091208,,,S*6E
$GPRMC,123555.600,A,4559.6200,N,12269.8600,W,111.92,291.03,091208,,,S*65
$GPRMC,123555.800,A,4559.6210,N,12269.8800,W,112.37,291.05,091208,,,S*6E
$GPRMC,123556.000,A,4559.6270,N,12269.8900,W,112.38,291.26,091208,,,S*6C
$GPRMC,123556.200,A,4559.6280,N,12269.8900,W,112.58,291.23,091208,,,S*62
$GPRMC,123556.400,A,4559.6330,N,12269.9100,W,112.59,291.23,091208,,,S*66
$GPRMC,123556.600,A,4559.6340,N,12269.9200,W,112.60,291.24,091208,,,S*6D
$GPRMC,123556.800,A,4559.6400,N,12269.9400,W,112.98,291.33,091208,,,S*67
$GPRMC,123557.000,A,4559.6420,N,12269.9500,W,112.93,291.27,091208,,,S*63
$GPRMC,123557.200,A,4559.6470,N,12269.9600,W,112.85,291.15,091208,,,S*61
$GPRMC,123557.400,A,4559.6490,N,12269.9800,W,113.07,290.99,091208,,,S*69
$GPRMC,123557.600,A,4559.6490,N,12269.9900,W,113.21,290.93,091208,,,S*64
$GPRMC,123557.800,A,4559.6550,N,12270.0000,W,113.11,290.72,091208,,,S*63
$GPRMC,123558.000,A,4559.6570,N,12270.0000,W,113.12,290.53,091208,,,S*66
$GPRMC,123558.200,A,4559.6620,N,12270.0100,W,112.89,290.57,091208,,,S*64
$GPRMC,123558.400,A,4559.6640,N,12270.0300,W,113.05,290.71,091208,,,S*67
$GPRMC,123558.600,A,4559.6690,N,12270.0400,W,112.85,290.86,091208,,,S*6E
$GPRMC,123558.800,A,4559.6700,N,12270.0600,W,112.72,290.97,091208,,,S*62
$GPRMC,123559.000,A,4559.6750,N,12270.0700,W,112.77,290.72,091208,,,S*61
$GPRMC,123559.200,A,4559.6770,N,12270.0800,W,112.62,290.34,091208,,,S*68
$GPRMC,123559.400,A,4559.6820,N,12270.1000,W,112.61,290.21,091208,,,S*6A
$GPRMC,123559.600,A,4559.6830,N,12270.1100,W,112.60,290.17,091208,,,S*6C
$GPRMC,123559.800,A,4559.6890,N,12270.1100,W,111.77,290.35,091208,,,S*6D
$GPRMC,123560.000,A,4559.6900,N,12270.1300,W,110.50,290.31,091208,,,S*65
$GPRMC,123560.200,A,4559.6900,N,12270.1400,W,109.77,290.39,091208,,,S*65
$GPRMC,123560.400,A,4559.6960,N,12270.1500,W,107.31,290.39,091208,,,S*68
$GPRMC,123560.600,A,4559.6980,N,12270.1700,W,104.55,290.53,091208,,,S*6B
$GPRMC,123560.800,A,4559.7030,N,12270.1800,W,101.08,290.32,091208,,,S*63
$GPRMC,123561.000,A,4559.7050,N,12270.1900,W,097.11,290.99,091208,,,S*6A
$GPRMC,123561.200,A,4559.7050,N,12270.1900,W,093.48,291.53,091208,,,S*67
$GPRMC,123561.400,A,4559.7100,N,12270.2100,W,089.90,291.58,091208,,,S*6B
$GPRMC,123561.600,A,4559.7120,N,12270.2200,W,086.31,291.43,091208,,,S*66
$GPRMC,123561.800,A,4559.7120,N,12270.2200,W,082.68,291.54,091208,,,S*66
$GPRMC,123562.000,A,4559.7170,N,12270.2300,W,079.18,292.20,091208,,,S*6A
$GPRMC,123562.200,A,4559.7190,N,12270.2500,W,075.80,293.29,091208,,,S*65
$GPRMC,123562.400,A,4559.7190,N,12270.2500,W,072.58,294.79,091208,,,S*63
$GPRMC,123562.600,A,4559.7240,N,12270.2500,W,070.88,297.36,091208,,,S*68
$GPRMC,123562.800,A,4559.7260,N,12270.2600,W,069.64,300.54,091208,,,S*66
$GPRMC,123563.000,A,4559.7310,N,12270.2800,W,068.72,304.41,091208,,,S*61
$GPRMC,123563.200,A,4559.7320,N,12270.2800,W,067.78,308.35,091208,,,S*6A
$GPRMC,123563.400,A,4559.7380,N,12270.2800,W,067.11,312.43,091208,,,S*63
$GPRMC,123563.600,A,4559.7450,N,12270.2800,W,066.31,317.42,091208,,,S*6C
$GPRMC,123563.800,A,4559.7460,N,12270.2900,W,065.72,322.13,091208,,,S*66
$GPRMC,123564.000,A,4559.7520,N,12270.3000,W,065.81,326.62,091208,,,S*6A
$GPRMC,123564.200,A,4559.7580,N,12270.3000,W,065.42,331.37,091208,,,S*6B
$GPRMC,123564.400,A,4559.7600,N,12270.3000,W,065.35,336.03,091208,,,S*66
$GPRMC,123564.600,A,4559.7650,N,12270.3000,W,066.12,340.31,091208,,,S*67
$GPRMC,123564.800,A,4559.7720,N,12270.3000,W,066.50,343.82,091208,,,S*62
$GPRMC,123565.000,A,4559.7790,N,12270.3000,W,067.13,347.53,091208,,,S*6E
$GPRMC,123565.200,A,4559.7810,N,12270.3000,W,067.50,351.71,091208,,,S*6B
$GPRMC,123565.400,A,4559.7860,N,12270.3000,W,068.22,356.05,091208,,,S*64
$GPRMC,123565.600,A,4559.7930,N,12270.3000,W,069.07,359.25,091208,,,S*69
$GPRMC,123565.800,A,4559.8000,N,12270.3000,W,068.82,002.35,091208,,,S*62
$GPRMC,123566.000,A,4559.8060,N,12270.3000,W,070.16,006.26,091208,,,S*6D
$GPRMC,123566.200,A,4559.8080,N,12270.3000,W,070.75,009.94,091208,,,S*62
$GPRMC,123566.400,A,4559.8130,N,12270.3000,W,070.93,014.05,091208,,,S*62
$GPRMC,123566.600,A,4559.8200,N,12270.3000,W,071.24,018.46,091208,,,S*66
$GPRMC,123566.800,A,4559.8270,N,12270.3000,W,071.43,022.72,091208,,,S*60
$GPRMC,123567.000,A,4559.8280,N,12270.3000,W,071.95,027.00,091208,,,S*6D
$GPRMC,123567.200,A,4559.8340,N,12270.3000,W,072.38,030.24,091208,,,S*66
$GPRMC,123567.400,A,4559.8400,N,12270.2900,W,072.87,034.02,091208,,,S*6F
$GPRMC,123567.600,A,4559.8470,N,12270.2800,W,073.00,037.61,091208,,,S*63
$GPRMC,123567.800,A,4559.8480,N,12270.2800,W,072.94,041.64,091208,,,S*6A
$GPRMC,123568.000,A,4559.8540,N,12270.2800,W,073.92,045.80,091208,,,S*69
$GPRMC,123568.200,A,4559.8550,N,12270.2800,W,073.97,048.20,091208,,,S*68
$GPRMC,123568.400,A,4559.8610,N,12270.2600,W,072.79,050.62,091208,,,S*69
$GPRMC,123568.600,A,4559.8630,N,12270.2500,W,071.24,052.78,091208,,,S*68
$GPRMC,123568.800,A,4559.8670,N,12270.2500,W,070.11,055.53,091208,,,S*6B
$GPRMC,123569.000,A,4559.8690,N,12270.2500,W,068.96,058.96,091208,,,S*6E
$GPRMC,123569.200,A,4559.8690,N,12270.2400,W,068.00,062.76,091208,,,S*65
$GPRMC,123569.400,A,4559.8750,N,12270.2200,W,067.13,067.24,091208,,,S*67
$GPRMC,123569.600,A,4559.8760,N,12270.2200,W,065.79,072.17,091208,,,S*6C
$GPRMC,123569.800,A,4559.8760,N,12270.2200,W,064.94,077.01,091208,,,S*62
$GPRMC,123570.000,A,4559.8760,N,12270.2100,W,064.35,081.83,091208,,,S*69
$GPRMC,123570.200,A,4559.8760,N,12270.1900,W,063.66,087.00,091208,,,S*6C
$GPRMC,123570.400,A,4559.8760,N,12270.1900,W,063.34,091.90,091208,,,S*63
$GPRMC,123570.600,A,4559.8760,N,12270.1900,W,063.04,096.77,091208,,,S*6C
$GPRMC,123570.800,A,4559.8710,N,12270.1800,W,063.80,101.54,091208,,,S*66
$GPRMC,123571.000,A,4559.8690,N,12270.1700,W,063.89,105.22,091208,,,S*65
$GPRMC,123571.200,A,4559.8690,N,12270.1700,W,064.05,109.25,091208,,,S*6F
$GPRMC,123571.400,A,4559.8640,N,12270.1700,W,064.06,113.50,091208,,,S*6E
$GPRMC,123571.600,A,4559.8630,N,12270.1500,W,064.50,118.52,091208,,,S*63
$GPRMC,123571.800,A,4559.8580,N,12270.1400,W,064.82,123.66,091208,,,S*64
$GPRMC,123572.000,A,4559.8560,N,12270.1400,W,064.80,128.62,091208,,,S*6C
$GPRMC,123572.200,A,4559.8500,N,12270.1400,W,065.18,132.98,091208,,,S*66
$GPRMC,123572.400,A,4559.8490,N,12270.1300,W,065.71,137.03,091208,,,S*67
$GPRMC,123572.600,A,4559.8430,N,12270.1100,W,066.35,141.82,091208,,,S*66
$GPRMC,123572.800,A,4559.8360,N,12270.1100,W,066.95,145.96,091208,,,S*61
$GPRMC,123573.000,A,4559.8350,N,12270.1100,W,067.32,149.66,091208,,,S*64
$GPRMC,123573.200,A,4559.8290,N,12270.1100,W,068.51,151.48,091208,,,S*64
$GPRMC,123573.400,A,4559.8220,N,12270.1100,W,069.23,151.13,091208,,,S*63
$GPRMC,123573.600,A,4559.8160,N,12270.1100,W,069.29,149.45,091208,,,S*66
$GPRMC,123573.800,A,4559.8140,N,12270.1000,W,068.30,146.72,091208,,,S*69
$GPRMC,123574.000,A,4559.8090,N,12270.0900,W,066.80,143.57,091208,,,S*65
$GPRMC,123574.200,A,4559.8080,N,12270.0900,W,065.23,139.62,091208,,,S*67
$GPRMC,123574.400,A,4559.8020,N,12270.0900,W,063.83,134.91,091208,,,S*66
$GPRMC,123574.600,A,4559.8010,N,12270.0900,W,062.53,130.20,091208,,,S*65
$GPRMC,123574.800,A,4559.7950,N,12270.0900,W,061.16,125.70,091208,,,S*6A
$GPRMC,123575.000,A,4559.7940,N,12270.0700,W,059.90,120.59,091208,,,S*67
$GPRMC,123575.200,A,4559.7940,N,12270.0600,W,058.44,115.83,091208,,,S*6D
$GPRMC,123575.400,A,4559.7940,N,12270.0600,W,057.64,111.07,091208,,,S*6E
$GPRMC,123575.600,A,4559.7940,N,12270.0600,W,057.57,105.69,091208,,,S*61
$GPRMC,123575.800,A,4559.7940,N,12270.0500,W,057.16,100.15,091208,,,S*67
$GPRMC,123576.000,A,4559.7940,N,12270.0300,W,056.51,094.79,091208,,,S*6E
$GPRMC,123576.200,A,4559.7940,N,12270.0300,W,056.76,090.11,091208,,,S*63
$GPRMC,123576.400,A,4559.7940,N,12270.0300,W,056.96,085.04,091208,,,S*6B
$GPRMC,123576.600,A,4559.7940,N,12270.0200,W,056.94,080.93,091208,,,S*61
$GPRMC,123576.800,A,4559.7940,N,12270.0100,W,057.07,075.99,091208,,,S*67
$GPRMC,123577.000,A,4559.7990,N,12270.0100,W,057.52,070.70,091208,,,S*61
$GPRMC,123577.200,A,4559.8010,N,12270.0100,W,057.82,065.77,091208,,,S*63
$GPRMC,123577.400,A,4559.8010,N,12269.9900,W,058.04,060.60,091208,,,S*6E
$GPRMC,123577.600,A,4559.8060,N,12269.9800,W,058.68,055.99,091208,,,S*60
$GPRMC,123577.800,A,4559.8070,N,12269.9800,W,059.27,051.57,091208,,,S*63
$GPRMC,123578.000,A,4559.8130,N,12269.9800,W,059.97,047.26,091208,,,S*6B
$GPRMC,123578.200,A,4559.8140,N,12269.9800,W,060.58,043.15,091208,,,S*63
$GPRMC,123578.400,A,4559.8200,N,12269.9800,W,060.79,039.11,091208,,,S*68
$GPRMC,123578.600,A,4559.8270,N,12269.9700,W,061.46,035.24,091208,,,S*65
$GPRMC,123578.800,A,4559.8280,N,12269.9500,W,062.10,031.40,091208,,,S*60
$GPRMC,123579.000,A,4559.8330,N,12269.9500,W,062.90,028.25,091208,,,S*60
$GPRMC,123579.200,A,4559.8400,N,12269.9500,W,063.66,025.60,091208,,,S*62
$GPRMC,123579.400,A,4559.8410,N,12269.9500,W,064.37,022.03,091208,,,S*64
$GPRMC,123579.600,A,4559.8460,N,12269.9500,W,064.66,017.97,091208,,,S*6E
$GPRMC,123579.800,A,4559.8530,N,12269.9500,W,065.32,014.26,091208,,,S*6D
$GPRMC,123580.000,A,4559.8600,N,12269.9500,W,065.85,010.93,091208,,,S*65
$GPRMC,123580.200,A,4559.8620,N,12269.9500,W,066.56,007.38,091208,,,S*6F
$GPRMC,123580.400,A,4559.8670,N,12269.9500,W,067.13,004.10,091208,,,S*65
$GPRMC,123580.600,A,4559.8740,N,12269.9500,W,067.37,000.64,091208,,,S*64
$GPRMC,123580.800,A,4559.8810,N,12269.9500,W,068.11,356.92,091208,,,S*62
$GPRMC,123581.000,A,4559.8880,N,12269.9500,W,068.56,353.24,091208,,,S*69
$GPRMC,123581.200,A,4559.8890,N,12269.9500,W,069.07,350.19,091208,,,S*62
$GPRMC,123581.400,A,4559.8940,N,12269.9500,W,070.58,347.92,091208,,,S*6F
$GPRMC,123581.600,A,4559.9010,N,12269.9500,W,070.98,346.94,091208,,,S*6B
$GPRMC,123581.800,A,4559.9080,N,12269.9500,W,071.67,346.42,091208,,,S*66
$GPRMC,123582.000,A,4559.9150,N,12269.9500,W,072.72,346.56,091208,,,S*63
$GPRMC,123582.200,A,4559.9210,N,12269.9500,W,073.63,347.78,091208,,,S*6A
$GPRMC,123582.400,A,4559.9230,N,12269.9500,W,073.08,348.75,091208,,,S*61
$GPRMC,123582.600,A,4559.9280,N,12269.9500,W,070.78,349.43,091208,,,S*68
$GPRMC,123582.800,A,4559.9350,N,12269.9500,W,067.35,350.43,091208,,,S*6D
$GPRMC,123583.000,A,4559.9410,N,12269.9500,W,063.46,351.01,091208,,,S*60
$GPRMC,123583.200,A,4559.9430,N,12269.9500,W,060.13,351.34,091208,,,S*65
$GPRMC,123583.400,A,4559.9490,N,12269.9500,W,056.84,352.01,091208,,,S*67
$GPRMC,123583.600,A,4559.9510,N,12269.9500,W,053.26,353.43,091208,,,S*66
$GPRMC,123583.800,A,4559.9560,N,12269.9500,W,051.73,355.53,091208,,,S*6A
$GPRMC,123584.000,A,4559.9620,N,12269.9500,W,050.24,358.93,091208,,,S*60
$GPRMC,123584.200,A,4559.9640,N,12269.9500,W,049.10,003.30,091208,,,S*6F
$GPRMC,123584.400,A,4559.9700,N,12269.9500,W,048.39,008.22,091208,,,S*6E
$GPRMC,123584.600,A,4559.9710,N,12269.9500,W,047.99,013.81,091208,,,S*6B
$GPRMC,123584.800,A,4559.9770,N,12269.9500,W,048.11,019.00,091208,,,S*6F
$GPRMC,123585.000,A,4559.9780,N,12269.9500,W,048.33,024.37,091208,,,S*63
$GPRMC,123585.200,A,4559.9830,N,12269.9500,W,048.37,030.46,091208,,,S*62
$GPRMC,123585.400,A,4559.9850,N,12269.9500,W,048.70,036.84,091208,,,S*69
$GPRMC,123585.600,A,4559.9850,N,12269.9500,W,048.85,042.47,091208,,,S*6D
$GPRMC,123585.800,A,4559.9900,N,12269.9500,W,049.55,048.70,091208,,,S*65
$GPRMC,123586.000,A,4559.9920,N,12269.9400,W,049.29,054.92,091208,,,S*67
$GPRMC,123586.200,A,4559.9920,N,12269.9300,W,050.12,061.40,091208,,,S*6B
$GPRMC,123586.400,A,4559.9920,N,12269.9300,W,050.45,067.34,091208,,,S*6A
$GPRMC,123586.600,A,4559.9970,N,12269.9300,W,050.67,073.31,091208,,,S*6D
$GPRMC,123586.800,A,4559.9990,N,12269.9300,W,050.86,079.62,091208,,,S*6E
$GPRMC,123587.000,A,4559.9990,N,12269.9100,W,051.55,086.09,091208,,,S*67
$GPRMC,123587.200,A,4559.9990,N,12269.9000,W,051.81,091.02,091208,,,S*60
$GPRMC,123587.400,A,4559.9930,N,12269.9000,W,053.12,095.79,091208,,,S*6C
$GPRMC,123587.600,A,4559.9920,N,12269.9000,W,053.90,100.60,091208,,,S*60
$GPRMC,123587.800,A,4559.9920,N,12269.9000,W,054.76,104.96,091208,,,S*6C
$GPRMC,123588.000,A,4559.9920,N,12269.8800,W,055.75,108.33,091208,,,S*63
$GPRMC,123588.200,A,4559.9860,N,12269.8700,W,056.64,110.91,091208,,,S*69
$GPRMC,123588.400,A,4559.9850,N,12269.8700,W,057.68,113.07,091208,,,S*6D
$GPRMC,123588.600,A,4559.9850,N,12269.8700,W,057.59,114.45,091208,,,S*6C
$GPRMC,123588.800,A,4559.9850,N,12269.8600,W,057.89,114.63,091208,,,S*6A
$GPRMC,123589.000,A,4559.9800,N,12269.8400,W,058.62,114.64,091208,,,S*69
$GPRMC,123589.200,A,4559.9780,N,12269.8400,W,059.85,114.68,091208,,,S*68
$GPRMC,123589.400,A,4559.9780,N,12269.8400,W,060.27,114.90,091208,,,S*6B
$GPRMC,123589.600,A,4559.9740,N,12269.8400,W,059.79,114.74,091208,,,S*6E
$GPRMC,123589.800,A,4559.9720,N,12269.8300,W,059.88,114.80,091208,,,S*64
$GPRMC,123590.000,A,4559.9720,N,12269.8200,W,060.61,114.92,091208,,,S*6B
$GPRMC,123590.200,A,4559.9670,N,12269.8200,W,061.51,114.88,091208,,,S*64
$GPRMC,123590.400,A,4559.9660,N,12269.8000,W,062.66,114.92,091208,,,S*6D
$GPRMC,123590.600,A,4559.9660,N,12269.7900,W,063.50,114.27,091208,,,S*63
$GPRMC,123590.800,A,4559.9600,N,12269.7900,W,064.22,113.85,091208,,,S*66
$GPRMC,123591.000,A,4559.9580,N,12269.7900,W,065.35,112.84,091208,,,S*63
$GPRMC,123591.200,A,4559.9580,N,12269.7800,W,066.23,111.60,091208,,,S*6D
$GPRMC,123591.400,A,4559.9580,N,12269.7600,W,066.82,109.36,091208,,,S*64
$GPRMC,123591.600,A,4559.9580,N,12269.7600,W,067.63,107.18,091208,,,S*6A
$GPRMC,123591.800,A,4559.9530,N,12269.7600,W,068.41,105.32,091208,,,S*6A
$GPRMC,123592.000,A,4559.9510,N,12269.7500,W,069.22,103.25,091208,,,S*64
$GPRMC,123592.200,A,4559.9510,N,12269.7400,W,069.99,101.12,091208,,,S*61
$GPRMC,123592.400,A,4559.9510,N,12269.7400,W,070.61,099.81,091208,,,S*62
$GPRMC,123592.600,A,4559.9510,N,12269.7200,W,071.47,098.20,091208,,,S*69
$GPRMC,123592.800,A,4559.9510,N,12269.7100,W,072.24,096.87,091208,,,S*61
$GPRMC,123593.000,A,4559.9510,N,12269.7100,W,072.77,095.95,091208,,,S*6E
$GPRMC,123593.200,A,4559.9510,N,12269.7100,W,073.81,095.00,091208,,,S*68
$GPRMC,123593.400,A,4559.9510,N,12269.7000,W,074.55,094.26,091208,,,S*64
$GPRMC,123593.600,A,4559.9510,N,12269.6800,W,075.40,094.02,091208,,,S*6C
$GPRMC,123593.800,A,4559.9510,N,12269.6800,W,075.83,094.20,091208,,,S*6D
$GPRMC,123594.000,A,4559.9460,N,12269.6700,W,076.32,094.01,091208,,,S*61
$GPRMC,123594.200,A,4559.9450,N,12269.6500,W,077.34,094.11,091208,,,S*64
$GPRMC,123594.400,A,4559.9450,N,12269.6500,W,077.95,094.79,091208,,,S*67
$GPRMC,123594.600,A,4559.9450,N,12269.6400,W,078.83,094.93,091208,,,S*68
$GPRMC,123594.800,A,4559.9450,N,12269.6300,W,079.44,095.51,091208,,,S*64
$GPRMC,123595.000,A,4559.9450,N,12269.6300,W,079.85,096.69,091208,,,S*68
$GPRMC,123595.200,A,4559.9450,N,12269.6200,W,080.11,097.61,091208,,,S*69
$GPRMC,123595.400,A,4559.9450,N,12269.6000,W,081.02,098.67,091208,,,S*67
$GPRMC,123595.600,A,4559.9450,N,12269.6000,W,081.64,098.83,091208,,,S*6F
$GPRMC,123595.800,A,4559.9390,N,12269.5900,W,081.94,098.72,091208,,,S*61
$GPRMC,123596.000,A,4559.9380,N,12269.5800,W,081.89,101.44,091208,,,S*62
$GPRMC,123596.200,A,4559.9380,N,12269.5600,W,082.68,102.45,091208,,,S*60
$GPRMC,123596.400,A,4559.9380,N,12269.5500,W,082.97,103.35,091208,,,S*63
$GPRMC,123596.600,A,4559.9380,N,12269.5500,W,083.65,104.31,091208,,,S*6E
$GPRMC,123596.800,A,4559.9320,N,12269.5400,W,084.37,106.38,091208,,,S*60
$GPRMC,123597.000,A,4559.9310,N,12269.5200,W,085.04,107.84,091208,,,S*6B
$GPRMC,123597.200,A,4559.9310,N,12269.5200,W,085.33,108.09,091208,,,S*67
$GPRMC,123597.400,A,4559.9250,N,12269.5100,W,086.20,108.99,091208,,,S*6F
$GPRMC,123597.600,A,4559.9240,N,12269.5000,W,086.33,110.60,091208,,,S*60
$GPRMC,123597.800,A,4559.9180,N,12269.5000,W,087.02,111.26,091208,,,S*61
$GPRMC,123598.000,A,4559.9170,N,12269.4800,W,087.47,112.64,091208,,,S*64
$GPRMC,123598.200,A,4559.9170,N,12269.4700,W,087.95,113.55,091208,,,S*65
$GPRMC,123598.400,A,4559.9110,N,12269.4700,W,088.45,114.41,091208,,,S*65
$GPRMC,123598.600,A,4559.9100,N,12269.4600,W,088.88,115.96,091208,,,S*6D
$GPRMC,123598.800,A,4559.9040,N,12269.4400,W,089.08,117.02,091208,,,S*62
$GPRMC,123599.000,A,4559.9030,N,12269.4400,W,089.22,118.73,091208,,,S*6D
$GPRMC,123599.200,A,4559.8980,N,12269.4300,W,090.16,120.08,091208,,,S*63
$GPRMC,123599.400,A,4559.8910,N,12269.4100,W,090.34,121.71,091208,,,S*61
$GPRMC,123599.600,A,4559.8890,N,12269.4100,W,091.01,122.49,091208,,,S*65
$GPRMC,123599.800,A,4559.8840,N,12269.4000,W,091.16,123.70,091208,,,S*6A
$GPRMC,123600.000,A,4559.8770,N,12269.3900,W,091.43,126.04,091208,,,S*65
$GPRMC,123600.200,A,4559.8750,N,12269.3900,W,092.25,126.43,091208,,,S*65
$GPRMC,123600.400,A,4559.8700,N,12269.3900,W,092.69,126.89,091208,,,S*68
$GPRMC,123600.600,A,4559.8630,N,12269.3700,W,093.18,127.82,091208,,,S*6B
$GPRMC,123600.800,A,4559.8620,N,12269.3600,W,093.71,128.89,091208,,,S*6E
$GPRMC,123601.000,A,4559.8560,N,12269.3600,W,093.96,130.22,091208,,,S*61
$GPRMC,123601.200,A,4559.8500,N,12269.3400,W,094.56,131.41,091208,,,S*68
$GPRMC,123601.400,A,4559.8430,N,12269.3300,W,095.15,132.18,091208,,,S*62
$GPRMC,123601.600,A,4559.8410,N,12269.3300,W,095.37,132.53,091208,,,S*6D
$GPRMC,123601.800,A,4559.8360,N,12269.3300,W,095.77,134.18,091208,,,S*6E
$GPRMC,123602.000,A,4559.8290,N,12269.3100,W,096.15,134.64,091208,,,S*65
$GPRMC,123602.200,A,4559.8220,N,12269.3000,W,096.30,134.75,091208,,,S*6A
$GPRMC,123602.400,A,4559.8150,N,12269.3000,W,096.69,135.26,091208,,,S*63
$GPRMC,123602.600,A,4559.8140,N,12269.2900,W,097.30,135.66,091208,,,S*61
$GPRMC,123602.800,A,4559.8090,N,12269.2700,W,097.64,136.17,091208,,,S*69
$GPRMC,123603.000,A,4559.8020,N,12269.2700,W,098.23,136.67,091208,,,S*60
$GPRMC,123603.200,A,4559.7950,N,12269.2700,W,098.56,137.12,091208,,,S*62
$GPRMC,123603.400,A,4559.7880,N,12269.2600,W,099.18,137.39,091208,,,S*6B
$GPRMC,123603.600,A,4559.7810,N,12269.2500,W,099.75,137.91,091208,,,S*6A
$GPRMC,123603.800,A,4559.7740,N,12269.2500,W,099.78,138.19,091208,,,S*6C
$GPRMC,123604.000,A,4559.7730,N,12269.2400,W,100.02,138.77,091208,,,S*61
$GPRMC,123604.200,A,4559.7630,N,12269.2300,W,100.58,139.15,091208,,,S*6F
$GPRMC,123604.400,A,4559.7600,N,12269.2200,W,101.17,139.69,091208,,,S*6A
$GPRMC,123604.600,A,4559.7550,N,12269.2200,W,101.25,139.90,091208,,,S*69
$GPRMC,123604.800,A,4559.7480,N,12269.2200,W,101.87,140.45,091208,,,S*65
$GPRMC,123605.000,A,4559.7410,N,12269.2000,W,102.22,140.85,091208,,,S*67
$GPRMC,123605.200,A,4559.7340,N,12269.1900,W,102.34,141.15,091208,,,S*62
$GPRMC,123605.400,A,4559.7270,N,12269.1900,W,102.85,141.84,091208,,,S*64
$GPRMC,123605.600,A,4559.7200,N,12269.1900,W,103.35,141.98,091208,,,S*66
$GPRMC,123605.800,A,4559.7130,N,12269.1700,W,103.79,142.32,091208,,,S*6D
$GPRMC,123606.000,A,4559.7060,N,12269.1600,W,103.94,142.44,091208,,,S*61
$GPRMC,123606.200,A,4559.7000,N,12269.1600,W,104.10,142.28,091208,,,S*64
$GPRMC,123606.400,A,4559.6930,N,12269.1500,W,104.61,142.84,091208,,,S*6A
$GPRMC,123606.600,A,4559.6860,N,12269.1300,W,104.94,143.30,091208,,,S*6E
$GPRMC,123606.800,A,4559.6790,N,12269.1300,W,105.33,143.51,091208,,,S*6B
$GPRMC,123607.000,A,4559.6730,N,12269.1300,W,105.67,143.52,091208,,,S*6A
$GPRMC,123607.200,A,4559.6660,N,12269.1200,W,105.77,143.56,091208,,,S*68
$GPRMC,123607.400,A,4559.6590,N,12269.1100,W,106.08,143.51,091208,,,S*6D
$GPRMC,123607.600,A,4559.6520,N,12269.1100,W,106.70,143.67,091208,,,S*6E
$GPRMC,123607.800,A,4559.6450,N,12269.1100,W,106.74,143.46,091208,,,S*61
$GPRMC,123608.000,A,4559.6380,N,12269.0900,W,106.77,143.37,091208,,,S*60
$GPRMC,123608.200,A,4559.6310,N,12269.0800,W,107.44,143.70,091208,,,S*68
$GPRMC,123608.400,A,4559.6240,N,12269.0800,W,107.30,143.27,091208,,,S*6B
$GPRMC,123608.600,A,4559.6180,N,12269.0700,W,107.19,142.61,091208,,,S*61
$GPRMC,123608.800,A,4559.6110,N,12269.0500,W,108.08,142.59,091208,,,S*60
$GPRMC,123609.000,A,4559.5990,N,12269.0500,W,108.44,142.41,091208,,,S*6B
$GPRMC,123609.200,A,4559.5910,N,12269.0400,W,108.69,142.73,091208,,,S*6E
$GPRMC,123609.400,A,4559.5840,N,12269.0300,W,107.96,142.76,091208,,,S*61
$GPRMC,123609.600,A,4559.5780,N,12269.0300,W,105.44,142.73,091208,,,S*68
$GPRMC,123609.800,A,4559.5760,N,12269.0300,W,101.78,142.24,091208,,,S*61
$GPRMC,123610.000,A,4559.5710,N,12269.0100,W,099.33,141.52,091208,,,S*69
$GPRMC,123610.200,A,4559.5640,N,12269.0000,W,095.96,140.65,091208,,,S*68
$GPRMC,123610.400,A,4559.5570,N,12269.0000,W,093.71,139.09,091208,,,S*65
$GPRMC,123610.600,A,4559.5560,N,12268.9900,W,091.77,136.67,091208,,,S*64
$GPRMC,123610.800,A,4559.5500,N,12268.9700,W,090.07,134.44,091208,,,S*67
$GPRMC,123611.000,A,4559.5430,N,12268.9700,W,088.90,132.14,091208,,,S*68
$GPRMC,123611.200,A,4559.5420,N,12268.9700,W,088.22,129.20,091208,,,S*6F
$GPRMC,123611.400,A,4559.5360,N,12268.9600,W,087.75,125.93,091208,,,S*62
$GPRMC,123611.600,A,4559.5360,N,12268.9400,W,087.87,122.97,091208,,,S*6C
$GPRMC,123611.800,A,4559.5300,N,12268.9400,W,087.82,119.73,091208,,,S*63
$GPRMC,123612.000,A,4559.5290,N,12268.9300,W,087.70,117.17,091208,,,S*66
$GPRMC,123612.200,A,4559.5230,N,12268.9200,W,088.34,114.18,091208,,,S*6C
$GPRMC,123612.400,A,4559.5220,N,12268.9200,W,088.19,112.05,091208,,,S*6E
$GPRMC,123612.600,A,4559.5220,N,12268.9000,W,085.88,111.06,091208,,,S*6B
$GPRMC,123612.800,A,4559.5160,N,12268.8900,W,083.13,111.33,091208,,,S*68
$GPRMC,123613.000,A,4559.5140,N,12268.8900,W,080.64,112.27,091208,,,S*66
$GPRMC,123613.200,A,4559.5090,N,12268.8900,W,078.93,114.82,091208,,,S*6E
$GPRMC,123613.400,A,4559.5080,N,12268.8800,W,078.03,117.73,091208,,,S*6C
$GPRMC,123613.600,A,4559.5020,N,12268.8700,W,077.91,120.94,091208,,,S*62
$GPRMC,123613.800,A,4559.5010,N,12268.8700,W,077.47,123.53,091208,,,S*6C
$GPRMC,123614.000,A,4559.4950,N,12268.8500,W,077.01,126.58,091208,,,S*61
$GPRMC,123614.200,A,4559.4940,N,12268.8400,W,076.63,129.82,091208,,,S*6E
$GPRMC,123614.400,A,4559.4880,N,12268.8400,W,077.08,133.94,091208,,,S*65
$GPRMC,123614.600,A,4559.4810,N,12268.8400,W,077.31,137.45,091208,,,S*6C
$GPRMC,123614.800,A,4559.4800,N,12268.8300,W,077.48,140.55,091208,,,S*6B
$GPRMC,123615.000,A,4559.4750,N,12268.8100,W,077.81,143.89,091208,,,S*6D
$GPRMC,123615.200,A,4559.4680,N,12268.8100,W,078.06,147.01,091208,,,S*67
$GPRMC,123615.400,A,4559.4610,N,12268.8100,W,078.25,149.97,091208,,,S*68
$GPRMC,123615.600,A,4559.4590,N,12268.8100,W,076.86,152.27,091208,,,S*67
$GPRMC,123615.800,A,4559.4540,N,12268.8100,W,075.15,154.16,091208,,,S*69
$GPRMC,123616.000,A,4559.4470,N,12268.8000,W,072.67,155.12,091208,,,S*66
$GPRMC,123616.200,A,4559.4400,N,12268.7900,W,069.12,155.75,091208,,,S*6C
$GPRMC,123616.400,A,4559.4390,N,12268.7900,W,065.85,156.10,091208,,,S*66
$GPRMC,123616.600,A,4559.4330,N,12268.7900,W,063.55,157.10,091208,,,S*64
$GPRMC,123616.800,A,4559.4260,N,12268.7900,W,060.91,158.91,091208,,,S*63
$GPRMC,123617.000,A,4559.4250,N,12268.7900,W,059.36,161.98,091208,,,S*6D
$GPRMC,123617.200,A,4559.4190,N,12268.7900,W,058.78,165.79,091208,,,S*60
$GPRMC,123617.400,A,4559.4120,N,12268.7900,W,057.99,170.48,091208,,,S*6B
$GPRMC,123617.600,A,4559.4100,N,12268.7900,W,057.17,175.10,091208,,,S*65
$GPRMC,123617.800,A,4559.4060,N,12268.7900,W,056.94,179.86,091208,,,S*65
$GPRMC,123618.000,A,4559.3990,N,12268.7900,W,056.55,186.36,091208,,,S*65
$GPRMC,123618.200,A,4559.3970,N,12268.7900,W,056.16,191.78,091208,,,S*62
